,name,location.lat,location.lon,minority_serving.historically_black,act_scores.midpoint.cumulative,sat_scores.average.overall,demographics.race_ethnicity.white,net_price_less_30000,net_price_30001_48000,net_price_48001_75000,net_price_75001_110000,net_price_above_110001,demographics.women,locale,admission_rate.overall,size,early_pay,ownership,percent_stem,rank_lac,Rank,Description,division
0,Alabama A & M University,34.783367999999996,-86.568502,1.0,18.0,850.0,0.034,13075.0,12458.0,15857.0,16022.0,14646.0,0.5383,12.0,0.6538,4505.0,46200.0,1,19.0,0,0.0,"For Sports Fans, State School",non_ncaa
1,University of Alabama at Birmingham,33.50223,-86.80917,0.0,25.0,1147.0,0.5863,13614.0,14746.0,17601.0,18873.0,18482.0,0.5884,12.0,0.6043,11269.0,46000.0,1,17.0,0,0.0,"Research University, For Sports Fans, State School",D1
2,University of Alabama in Huntsville,34.722818,-86.63842,0.0,27.0,1221.0,0.7024,15252.0,17228.0,19178.0,20842.0,20848.0,0.426,12.0,0.812,5829.0,54200.0,1,42.0,0,0.0,"Research University, State School",D2
3,Alabama State University,32.364317,-86.295677,1.0,18.0,844.0,0.0165,7519.0,2611.0,9831.0,11446.0,12430.0,0.615,12.0,0.4639,4740.0,38300.0,1,14.0,0,0.0,"For Sports Fans, State School",D1
4,The University of Alabama,33.2144,-87.545766,0.0,27.0,1181.0,0.7807,17263.0,19279.0,21309.0,22594.0,23599.0,0.5475,13.0,0.5359,31005.0,49000.0,1,15.0,0,0.0,"Party School, Research University, For Sports Fans, State School",non_ncaa
5,Auburn University at Montgomery,32.369939,-86.177351,0.0,21.0,990.0,0.5355,12857.0,14215.0,15572.0,17266.0,16094.0,0.6405,12.0,0.7871,4142.0,42300.0,1,6.0,0,0.0,State School,non_ncaa
6,Auburn University,32.604684999999996,-85.482782,0.0,27.0,1218.0,0.8420000000000001,17216.0,19189.0,22210.0,24383.0,25805.0,0.4905,13.0,0.7766,21551.0,50700.0,1,28.0,0,99.0,"Auburn, Alabama, has been ranked one of the best places to live, and life at Auburn University can be similarly enjoyable for students. Football is a particularly big attraction in the fall, as fans support the Auburn Tigers with the help of school mascot Aubie the Tiger. The Tiger sports teams compete in the NCAA Division I Southeastern Conference, and the influx of football fans makes Auburn the fifth-largest city in the state on game days. Pep rallies are held in the downtown Toomer's Corner, and the area is covered in toilet paper by fans after every big victory. There are more than 300 organizations on campus, and about 6,000 students are involved in the school's Greek system. Auburn freshmen ease into the college transition through Camp War Eagle, a two-day, overnight summer orientation program. Transition help continues on Hey Day, an annual effort to get students to wear name tags and say hello to one another. Freshmen do not have to live on campus; in fact, a dorm room isn't even guaranteed. Because of space restraints, first-year students are awarded on-campus living assignments on a first-come, first-served basis. ",D1
7,Birmingham Southern College,33.515453,-86.853636,0.0,26.0,1167.0,0.7912,18551.0,17803.0,20676.0,21980.0,24681.0,0.4978,12.0,0.5306,1346.0,45600.0,2,25.0,0,0.0,"Liberal Arts School, Private School, Religious",non_ncaa
8,Concordia College Alabama,32.42443,-87.023531,1.0,22.0,777.0,0.0317,21197.0,22616.0,23323.0,26486.0,21812.0,0.4459,32.0,0.4034,379.0,34700.0,2,0.0,0,0.0,,non_ncaa
9,Faulkner University,32.384181,-86.21641,0.0,21.0,985.0,0.3996,23712.0,25216.0,24682.0,23567.0,21981.0,0.6126,12.0,0.573,2282.0,38400.0,2,2.0,0,0.0,"Business, Private School, Religious",non_ncaa
10,Herzing University-Birmingham,33.468105,-86.832299,0.0,21.0,966.0,0.3722,23060.0,21695.0,25307.0,26546.0,22423.0,0.5111,21.0,0.9541,360.0,34700.0,3,0.0,0,0.0,,non_ncaa
11,Huntingdon College,32.350939000000004,-86.285313,0.0,21.0,992.0,0.631,16621.0,17760.0,19988.0,21948.0,22932.0,0.5009,12.0,0.5769,1160.0,41100.0,2,12.0,0,0.0,"Private School, Religious",D3
12,Jacksonville State University,33.822128,-85.766644,0.0,23.0,1062.0,0.6981,14696.0,16376.0,18923.0,19997.0,20030.0,0.5688,13.0,0.6665,6625.0,41700.0,1,8.0,0,0.0,"For Sports Fans, State School",D1
13,Judson College,32.630526,-87.31612700000001,0.0,22.0,1031.0,0.7802,12695.0,14669.0,15811.0,14590.0,725.0,0.9598,43.0,0.6292,373.0,38700.0,2,7.0,0,0.0,"Liberal Arts School, Private School, Religious",non_ncaa
14,University of West Alabama,32.59244,-88.186077,0.0,20.0,930.0,0.4511,10626.0,11313.0,14450.0,14599.0,14637.0,0.5541,43.0,0.7347,1913.0,40200.0,1,3.0,0,0.0,State School,D2
15,University of Mobile,30.793246999999997,-88.128934,0.0,22.0,1025.0,0.6159,16828.0,19098.0,19251.0,21608.0,24284.0,0.6319,41.0,0.6051,1437.0,40200.0,2,7.0,0,0.0,"Private School, Religious",non_ncaa
16,University of Montevallo,33.10625,-86.865099,0.0,23.0,1069.0,0.7164,14436.0,15186.0,17994.0,19582.0,19811.0,0.6702,21.0,0.7001,2553.0,37100.0,1,3.0,0,0.0,State School,D2
17,University of North Alabama,34.80658,-87.680999,0.0,22.0,1027.0,0.7102,9381.0,10261.0,12371.0,13072.0,13156.0,0.5839,13.0,0.58,5698.0,41000.0,1,7.0,0,0.0,State School,non_ncaa
18,Oakwood University,34.756628000000006,-86.66162800000001,1.0,20.0,923.0,0.0047,19506.0,24573.0,24845.0,29915.0,30895.0,0.5797,12.0,0.4749,1687.0,34700.0,2,0.0,0,0.0,,non_ncaa
19,Samford University,33.464578,-86.790932,0.0,26.0,1162.0,0.8143,21312.0,24845.0,25704.0,29046.0,30462.0,0.6445,21.0,0.9329999999999999,3145.0,45800.0,2,3.0,0,0.0,"Private School, Religious, For Sports Fans",D1
20,University of South Alabama,30.695081,-88.18189,0.0,23.0,1045.0,0.5896,12171.0,12949.0,16612.0,19149.0,19654.0,0.5595,12.0,0.7816,11379.0,46200.0,1,17.0,0,0.0,"Research University, For Sports Fans, State School",D1
21,Spring Hill College,30.694751,-88.138199,0.0,25.0,1120.0,0.6852,7189.0,9056.0,8594.0,8848.0,13804.0,0.6058,12.0,0.4132,1347.0,43000.0,2,12.0,229.0,0.0,"Liberal Arts School, Private School, Religious",non_ncaa
22,Stillman College,33.199228000000005,-87.58524200000001,1.0,18.0,831.0,0.0581,15781.0,20600.0,17867.0,19877.0,15529.0,0.4828,13.0,0.5659,843.0,36200.0,2,21.0,0,0.0,"Liberal Arts School, Private School, Religious",non_ncaa
23,Troy University,31.800128000000004,-85.950191,0.0,23.0,1046.0,0.5345,11430.0,13206.0,13466.0,11429.0,15273.0,0.6041,41.0,0.9187,14065.0,42600.0,1,8.0,0,0.0,"For Sports Fans, State School",D1
24,Tuskegee University,32.431021,-85.71031500000001,1.0,21.0,955.0,0.0044,31882.0,32433.0,32508.0,29770.0,29737.0,0.6158,32.0,0.5296,2486.0,50700.0,2,34.0,0,0.0,Private School,D2
25,University of Alaska Anchorage,61.189554,-149.82613500000002,0.0,22.0,1314.0,0.5656,7260.0,7701.0,10028.0,12115.0,12340.0,0.5720000000000001,11.0,0.706,12348.0,54300.0,1,10.0,0,0.0,State School,D2
26,University of Alaska Fairbanks,64.856483,-147.82294299999998,0.0,22.0,1058.0,0.4208,7088.0,8474.0,10019.0,13799.0,13339.0,0.5489999999999999,23.0,0.731,5432.0,55400.0,1,19.0,0,0.0,"Research University, State School",D2
27,University of Alaska Southeast,58.384269999999994,-134.636346,0.0,21.0,978.0,0.4738,11479.0,12132.0,13417.0,15941.0,15124.0,0.6983,33.0,0.4891,1372.0,34700.0,1,0.0,0,0.0,,non_ncaa
28,Alaska Pacific University,61.191235,-149.804242,0.0,22.0,985.0,0.5512,21638.0,15305.0,13749.0,19850.0,21040.0,0.6457,11.0,0.3891,254.0,48800.0,2,7.0,0,0.0,"Private School, Religious",non_ncaa
29,Arizona State University-Tempe,33.422247,-111.934629,0.0,26.0,1158.0,0.523,7046.0,8555.0,13135.0,15480.0,17109.0,0.4321,12.0,0.8291,41222.0,51400.0,1,30.0,0,0.0,"Research University, For Sports Fans, State School",non_ncaa
30,University of Arizona,32.232071000000005,-110.950769,0.0,21.0,990.0,0.5227,12979.0,14314.0,17505.0,19332.0,19913.0,0.5151,11.0,0.7643,32964.0,52700.0,1,24.0,0,124.0,"As one of the largest public institutions in its state, the University of Arizona in Tucson offers a wide range of activities and academic opportunities to its students. Student athletic supporters form the ZonaZoo, the student section that supports the Arizona Wildcats sports teams, which compete in the NCAA Division I Pac-12 Conference. For athletes who don't compete on the school's teams, there are three levels of intramural sports: the Desert league, which emphasizes fun; the Sunset league, geared to moderate athletes; and the Cactus league, meant for very skilled and competitive athletes. For other ways to get involved, University of Arizona students can check out more than 30 fraternities and sororities, among many other student organizations. Freshmen are not required to live on campus, though first-year students make up about 80 percent of the on-campus residential population. Each year, the university community gathers for events like the Spring Fling, billed as the largest student-run carnival in the country, and Homecoming. As a research institution, the University of Arizona also offers a variety of opportunities for both undergraduate and graduate students to get involved in research projects. The university has a wide range of graduate student programs, including the Eller College of Management, the James E. Rogers College of Law and a College of Medicine. Notable alumni of the University of Arizona include reality television star Kourtney Kardashian and journalist Geraldo Rivera. ",D1
31,Embry-Riddle Aeronautical University-Prescott,34.615678,-112.452285,0.0,23.0,1145.0,0.591,28677.0,31548.0,30793.0,33993.0,38711.0,0.2285,41.0,0.7914,2193.0,60500.0,2,39.0,0,0.0,Private School,non_ncaa
32,Grand Canyon University,33.512172,-112.12991699999999,0.0,19.0,902.0,0.4836,25688.0,26648.0,29302.0,30974.0,31119.0,0.7292,11.0,0.43200000000000005,42444.0,34700.0,3,0.0,0,0.0,,D1
33,Prescott College,34.5445,-112.47650900000001,0.0,23.0,1039.0,0.665,17598.0,19469.0,22352.0,27390.0,32520.0,0.6171,13.0,0.7043,397.0,40500.0,2,3.0,0,0.0,Private School,non_ncaa
34,Arizona Christian University,33.595117,-112.026211,0.0,21.0,997.0,0.5606,26093.0,25868.0,27705.0,28033.0,29436.0,0.3944,11.0,0.5123,644.0,39100.0,2,5.0,0,0.0,"Private School, Religious",non_ncaa
35,University of Arkansas at Little Rock,34.726644,-92.341835,0.0,21.0,990.0,0.5158,11601.0,11289.0,12907.0,14295.0,14084.0,0.6005,12.0,0.8983,7888.0,43400.0,1,12.0,0,0.0,"Research University, For Sports Fans, State School",non_ncaa
36,Lyon College,35.778934,-91.62811500000001,0.0,25.0,1120.0,0.7481,13631.0,14275.0,18551.0,19303.0,19649.0,0.4726,33.0,0.5912,675.0,40700.0,2,38.0,229.0,0.0,"Liberal Arts School, Private School, Religious",non_ncaa
37,University of Arkansas,36.06153,-94.178214,0.0,26.0,1154.0,0.7722,11335.0,12017.0,14631.0,17533.0,17830.0,0.5224,13.0,0.6006,21815.0,49100.0,1,19.0,0,135.0,"The University of Arkansas, or U of A, is a public institution located in the city of Fayetteville, in the northwest corner of the state. Students at the University of Arkansas can pursue a bachelor's degree in about 75 fields of study, with graduate degrees available in the Sam M. Walton College of Business, the College of Engineering, the School of Law and other fields. U of A students can get involved on campus through several student organizations and media opportunities, including two radio stations and a student newspaper that's been around for more than a century. The Office of Student Activities at U of A plans several free events for students, including concerts featuring Grammy winners such as John Mayer, and lectures by prominent figures such as former President George H.W. Bush. Students who want to venture off the University of Arkansas campus can visit the nearby Ozark National Forest and Buffalo National River or take a weekend trip to Dallas, Memphis or St. Louis, which are each about 300 miles away. Student athletes can join recreational sports or one of the nearly 20 University of Arkansas Razorbacks varsity teams, which compete in the NCAA Division I Southeastern Conference. Notable U of A past faculty include Bill and Hillary Clinton, who each taught in the law school a few decades before landing in the White House, and famed alumni include Charles Portis, who penned the Western novel ""True Grit. ",D1
38,University of Arkansas at Pine Bluff,34.242191999999996,-92.021263,1.0,18.0,871.0,0.0439,7380.0,8035.0,8806.0,12459.0,11061.0,0.5629,13.0,0.4616,2526.0,40200.0,1,22.0,0,0.0,"For Sports Fans, State School",D1
39,Arkansas State University-Main Campus,35.842779,-90.68047800000001,0.0,24.0,1088.0,0.7431,10521.0,10895.0,12833.0,14686.0,14533.0,0.5709,13.0,0.7024,8909.0,42800.0,1,5.0,0,0.0,"For Sports Fans, State School",non_ncaa
40,Arkansas Tech University,35.295227000000004,-93.13233000000001,0.0,22.0,1068.0,0.7571,9061.0,9631.0,11617.0,12670.0,12927.0,0.5489999999999999,33.0,0.8911,8799.0,43500.0,1,8.0,0,0.0,State School,D2
41,University of Central Arkansas,35.078196000000005,-92.45931,0.0,23.0,1068.0,0.6574,11248.0,11913.0,14392.0,15584.0,15759.0,0.5913,13.0,0.9218,9340.0,42500.0,1,9.0,0,0.0,"For Sports Fans, State School",D1
42,Central Baptist College,35.084573999999996,-92.444102,0.0,21.0,968.0,0.6667,14040.0,14114.0,15749.0,17357.0,17074.0,0.4633,13.0,0.4749,777.0,38200.0,2,3.0,0,0.0,"Private School, Religious",non_ncaa
43,Harding University,35.249604999999995,-91.729008,0.0,25.0,1135.0,0.8301,11825.0,13477.0,16574.0,18992.0,20689.0,0.5519,32.0,0.992,4450.0,46100.0,2,11.0,0,0.0,"Private School, Religious",D2
44,Henderson State University,34.127792,-93.060313,0.0,21.0,988.0,0.6586,9488.0,10188.0,11249.0,12837.0,8725.0,0.5698,32.0,0.6334,3096.0,41300.0,1,5.0,0,0.0,State School,D2
45,Hendrix College,35.09972,-92.442021,0.0,29.0,1270.0,0.7782,21841.0,22694.0,25252.0,25066.0,28033.0,0.5303,13.0,0.8238,1303.0,45800.0,2,28.0,76.0,0.0,"Liberal Arts School, Private School, Religious",D3
46,John Brown University,36.191077,-94.559088,0.0,27.0,1209.0,0.7441,15310.0,15745.0,19059.0,20785.0,23076.0,0.5760000000000001,32.0,0.7376,1684.0,44000.0,2,6.0,0,0.0,"Business, Private School",non_ncaa
47,Ouachita Baptist University,34.125045,-93.052442,0.0,25.0,1120.0,0.8498,14948.0,13960.0,16787.0,21157.0,24244.0,0.5214,32.0,0.6845,1471.0,42600.0,2,17.0,229.0,0.0,"Liberal Arts School, Private School, Religious",D2
48,University of the Ozarks,35.477785,-93.467924,0.0,23.0,1034.0,0.6563,12704.0,12719.0,14145.0,18082.0,21400.0,0.5203,33.0,0.9677,640.0,41000.0,2,19.0,0,0.0,"Private School, Religious",D3
49,Williams Baptist College,36.126825,-90.939876,0.0,22.0,1010.0,0.8306,12827.0,13477.0,14719.0,16829.0,16388.0,0.4939,42.0,0.6375,490.0,34700.0,2,0.0,0,0.0,,non_ncaa
50,Southern Arkansas University Main Campus,33.291195,-93.235087,0.0,21.0,988.0,0.6327,10133.0,10632.0,13265.0,14768.0,15003.0,0.5624,33.0,0.6748,2859.0,40800.0,1,25.0,0,0.0,State School,non_ncaa
51,University of Arkansas-Fort Smith,35.385345,-94.374073,0.0,23.0,961.0,0.6983,7210.0,6899.0,8576.0,9525.0,11822.0,0.5624,13.0,0.5581,5754.0,38800.0,1,8.0,0,0.0,State School,non_ncaa
52,Azusa Pacific University,34.130865,-117.88795,0.0,24.0,1080.0,0.4375,21479.0,23943.0,24594.0,28145.0,33699.0,0.6526,21.0,0.809,5883.0,47200.0,2,3.0,0,183.0,"Founded in 1899, Azusa Pacific University is a private institution. Azusa Pacific University offers a Greek system, where 0 percent of the student body is involved in a sorority and 0 percent is involved in a fraternity. ",D2
53,Biola University,33.904823,-118.017342,0.0,25.0,1115.0,0.4895,25382.0,26527.0,28864.0,33479.0,37666.0,0.634,21.0,0.6985,4219.0,47000.0,2,7.0,0,164.0,"Founded in 1908, Biola University is a private institution. The school has 46.9 percent of its classes with fewer than 20 students, and the student-faculty ratio at Biola University is 15:1. ",non_ncaa
54,California Baptist University,33.928569,-117.42586999999999,0.0,21.0,960.0,0.3916,25711.0,29190.0,29674.0,32821.0,36771.0,0.628,11.0,0.6541,6604.0,43300.0,2,7.0,0,0.0,"Private School, Religious",non_ncaa
55,California Institute of Technology,34.139275,-118.12574,0.0,35.0,1544.0,0.2737,10064.0,8328.0,10264.0,31931.0,42695.0,0.3906,12.0,0.0881,1001.0,78800.0,2,97.0,0,12.0,"Caltech, which focuses on science and engineering, is located in Pasadena, California, approximately 11 miles northeast of Los Angeles. Social and academic life at Caltech centers on the eight student houses, which the school describes as ""self-governing living groups."" Student houses incorporate an admired Caltech tradition: dinners served by student waiters. Only freshmen are required to live on campus, but around 80 percent of students remain in their house for all four years. The Caltech Beavers have a number of NCAA Division III teams that compete in the Southern California Intercollegiate Athletic Conference. Integral to student life is the Honor Code, which dictates that ""No member of the Caltech community shall take unfair advantage of any other member of the Caltech community. ",D3
56,California Lutheran University,34.225551,-118.87946699999999,0.0,25.0,1109.0,0.4925,23962.0,24535.0,26328.0,29949.0,35053.0,0.5746,12.0,0.6156,2802.0,48000.0,2,13.0,0,0.0,"Private School, Religious",D3
57,California Polytechnic State University-San Luis Obispo,35.29889,-120.65856000000001,0.0,29.0,1259.0,0.575,10066.0,12107.0,15855.0,20662.0,23521.0,0.4661,23.0,0.3129,19972.0,61100.0,1,41.0,0,0.0,"For Sports Fans, State School",non_ncaa
58,Alliant International University-San Diego,32.897056,-117.094398,0.0,22.0,1068.0,0.3216,15555.0,22598.0,20669.0,27328.0,27548.0,0.6462,11.0,0.9155,342.0,34700.0,3,0.0,0,0.0,,non_ncaa
59,California State University-Bakersfield,35.350004999999996,-119.10471100000001,0.0,23.0,999.0,0.2033,4005.0,4813.0,8321.0,12993.0,15064.0,0.6099,11.0,0.6875,8068.0,47700.0,1,14.0,0,0.0,"For Sports Fans, State School",non_ncaa
60,California State University-Stanislaus,37.52577,-120.852511,0.0,22.0,1314.0,0.2444,3977.0,4742.0,7976.0,13975.0,15768.0,0.6368,23.0,0.7063,8093.0,47000.0,1,9.0,0,0.0,State School,non_ncaa
61,California State University-San Bernardino,34.182987,-117.32250800000001,0.0,18.0,887.0,0.1409,3968.0,5417.0,8907.0,12592.0,15622.0,0.6058,12.0,0.6459,17518.0,45500.0,1,9.0,0,0.0,State School,non_ncaa
62,California State Polytechnic University-Pomona,34.054272999999995,-117.819019,0.0,24.0,1066.0,0.1936,9047.0,10399.0,14858.0,19240.0,21272.0,0.4424,21.0,0.3931,22034.0,53600.0,1,28.0,0,0.0,State School,non_ncaa
63,California State University-Chico,39.728003,-121.846333,0.0,22.0,1003.0,0.4601,8735.0,10216.0,14797.0,19510.0,21206.0,0.5241,13.0,0.6345,15903.0,52700.0,1,11.0,0,0.0,State School,non_ncaa
64,California State University-Dominguez Hills,33.86524,-118.259316,0.0,21.0,955.0,0.0805,1186.0,2332.0,7254.0,11867.0,12900.0,0.6322,13.0,0.5277,12584.0,46200.0,1,5.0,0,0.0,State School,non_ncaa
65,California State University-Fresno,36.814477000000004,-119.748258,0.0,19.0,897.0,0.2134,3730.0,4895.0,8780.0,13276.0,15592.0,0.5753,11.0,0.5219,21076.0,47800.0,1,10.0,0,0.0,"Research University, For Sports Fans, State School",non_ncaa
66,California State University-Fullerton,33.883627000000004,-117.885349,0.0,22.0,1024.0,0.2211,3472.0,4761.0,8769.0,13563.0,15805.0,0.5533,21.0,0.4186,33009.0,47400.0,1,14.0,0,0.0,"Research University, For Sports Fans, State School",non_ncaa
67,California State University-East Bay,37.657070000000004,-122.058073,0.0,21.0,990.0,0.1614,6545.0,8353.0,12652.0,17415.0,19501.0,0.6159,12.0,0.7403,12981.0,53900.0,1,12.0,0,0.0,State School,non_ncaa
68,California State University-Long Beach,33.782752,-118.1123,0.0,23.0,1056.0,0.1881,5588.0,7459.0,10754.0,14690.0,17105.0,0.5616,11.0,0.3382,32025.0,49200.0,1,16.0,0,0.0,"For Sports Fans, State School",non_ncaa
69,California State University-Los Angeles,34.066927,-118.16896499999999,0.0,18.0,874.0,0.0714,1610.0,2605.0,6576.0,11722.0,13407.0,0.5846,11.0,0.6813,23424.0,47100.0,1,18.0,0,0.0,State School,non_ncaa
70,California State University-Northridge,34.236709999999995,-118.526817,0.0,19.0,902.0,0.2278,4328.0,5551.0,9965.0,14508.0,16378.0,0.5374,11.0,0.456,36979.0,47900.0,1,11.0,0,0.0,"For Sports Fans, State School",non_ncaa
71,California State University-Sacramento,38.55745,-121.42193999999999,0.0,20.0,948.0,0.29,5363.0,6343.0,10610.0,15609.0,17303.0,0.5597,11.0,0.6725,27323.0,50900.0,1,12.0,0,0.0,"For Sports Fans, State School",non_ncaa
72,University of California-Berkeley,37.871969,-122.260423,0.0,32.0,1397.0,0.2689,7338.0,9384.0,12260.0,19289.0,28961.0,0.5205,12.0,0.1688,27496.0,65400.0,1,34.0,0,0.0,"Research University, For Sports Fans, State School",non_ncaa
73,University of California-Davis,38.539895,-121.751958,0.0,28.0,1226.0,0.2832,9986.0,11025.0,13961.0,21041.0,29289.0,0.5889,23.0,0.3795,28239.0,56700.0,1,37.0,0,0.0,"Research University, For Sports Fans, State School",non_ncaa
74,University of California-Irvine,33.648434,-117.841248,0.0,27.0,1175.0,0.1493,9026.0,10302.0,13674.0,21395.0,28086.0,0.5376,12.0,0.3868,25245.0,54900.0,1,32.0,0,0.0,"Research University, For Sports Fans, State School",non_ncaa
75,University of California-Los Angeles,34.068892,-118.443901,0.0,31.0,1339.0,0.2714,7612.0,8790.0,12382.0,19557.0,28237.0,0.5606,11.0,0.1728,29581.0,57500.0,1,31.0,0,0.0,"Research University, For Sports Fans, State School",non_ncaa
76,University of California-Riverside,33.97588,-117.331098,0.0,26.0,1119.0,0.1321,7809.0,8263.0,10885.0,17640.0,26489.0,0.5194,11.0,0.556,18597.0,51600.0,1,33.0,0,0.0,"Research University, For Sports Fans, State School",non_ncaa
77,University of California-San Diego,32.876598,-117.237793,0.0,31.0,1344.0,0.2144,8424.0,9822.0,13329.0,20691.0,27790.0,0.4751,11.0,0.3374,26584.0,58600.0,1,54.0,0,0.0,"Engineering, Research University, State School",non_ncaa
78,University of California-Santa Barbara,34.416281,-119.846404,0.0,29.0,1248.0,0.3454,9546.0,10892.0,14451.0,21503.0,30720.0,0.5282,22.0,0.3264,20606.0,54900.0,1,28.0,0,0.0,"Party School, Research University, For Sports Fans, State School",non_ncaa
79,University of California-Santa Cruz,36.997258,-122.06799299999999,0.0,28.0,1201.0,0.3301,11454.0,12602.0,16134.0,24124.0,31788.0,0.5252,13.0,0.5029,16231.0,53500.0,1,37.0,0,0.0,"Research University, State School",non_ncaa
80,California State University Maritime Academy,38.069061,-122.231551,0.0,23.0,999.0,0.5354,8321.0,9700.0,13854.0,18671.0,21221.0,0.1474,12.0,0.6617,1072.0,64600.0,1,19.0,0,0.0,State School,non_ncaa
81,Chapman University,33.793678,-117.851481,0.0,28.0,1217.0,0.584,25781.0,26119.0,29974.0,32736.0,43546.0,0.6028,12.0,0.4758,6281.0,49200.0,2,5.0,0,0.0,"Private School, Religious",D3
82,Concordia University-Irvine,33.6535,-117.81063,0.0,23.0,1029.0,0.4498,21798.0,22214.0,23084.0,27081.0,30789.0,0.6366,12.0,0.5917,1863.0,46700.0,2,2.0,0,0.0,"Private School, Religious",non_ncaa
83,San Diego Christian College,32.84281,-116.978151,0.0,20.0,933.0,0.4641,24011.0,25126.0,24673.0,24573.0,30494.0,0.5403,21.0,0.5173,905.0,41500.0,2,5.0,0,0.0,"Private School, Religious",non_ncaa
84,Claremont McKenna College,34.102323,-117.706593,0.0,31.0,1408.0,0.4226,8634.0,7701.0,16705.0,27850.0,36704.0,0.4891,21.0,0.1096,1325.0,63500.0,2,14.0,8.0,0.0,"Liberal Arts School, Private School",non_ncaa
85,Cogswell College,37.413664000000004,-121.94055300000001,0.0,22.0,1030.0,0.4175,18082.0,19301.0,23461.0,23595.0,26938.0,0.2667,11.0,0.6074,630.0,34700.0,3,0.0,0,0.0,,non_ncaa
86,Dominican University of California,37.980014000000004,-122.51465400000001,0.0,23.0,1054.0,0.3652,27850.0,27189.0,31005.0,33193.0,38420.0,0.7246,13.0,0.7883,1358.0,51900.0,2,13.0,0,0.0,Private School,D2
87,Fresno Pacific University,36.725279,-119.731953,0.0,22.0,988.0,0.354,13714.0,12074.0,16088.0,19946.0,20881.0,0.7096,11.0,0.6313,2342.0,42400.0,2,2.0,0,0.0,"Private School, Religious",D2
88,Golden Gate University-San Francisco,37.789208,-122.398785,0.0,21.0,959.0,0.2483,3653.0,5416.0,7313.0,10964.0,14566.0,0.5277,11.0,1.0,451.0,56600.0,2,2.0,0,0.0,"Business, Private School",non_ncaa
89,Harvey Mudd College,34.106137,-117.710594,0.0,34.0,1484.0,0.38299999999999995,10165.0,17925.0,22037.0,21338.0,45017.0,0.46799999999999997,21.0,0.1296,812.0,81000.0,2,85.0,12.0,0.0,"Engineering, Liberal Arts School, Private School",non_ncaa
90,Holy Names University,37.802654,-122.18717,0.0,18.0,858.0,0.2115,18539.0,24710.0,27080.0,28502.0,30510.0,0.6394,11.0,0.43,624.0,48100.0,2,2.0,0,0.0,"Private School, Religious",D2
91,Humboldt State University,40.8741,-124.0814,0.0,21.0,990.0,0.4491,9282.0,11395.0,14438.0,19985.0,21955.0,0.5578,33.0,0.77,8227.0,44800.0,1,18.0,0,0.0,State School,D2
92,American Jewish University,34.128099,-118.471764,0.0,23.0,1145.0,0.1918,38706.0,39027.0,43571.0,11805.0,725.0,0.5068,11.0,0.8036,73.0,34700.0,2,0.0,0,0.0,,non_ncaa
93,University of La Verne,34.10086,-117.77263400000001,0.0,22.0,1034.0,0.2245,12375.0,18223.0,20776.0,26116.0,29418.0,0.5848,21.0,0.4718,5140.0,47200.0,2,4.0,0,152.0,"Founded in 1891, University of La Verne is a private institution. University of La Verne follows a 4-1-4-based academic calendar and its admissions are considered selective. ",D3
94,La Sierra University,33.908834000000006,-117.49707099999999,0.0,19.0,929.0,0.1371,19628.0,20297.0,21709.0,24039.0,28409.0,0.5861,11.0,0.4462,2020.0,46200.0,2,11.0,0,0.0,"Private School, Religious",non_ncaa
95,The Master's University and Seminary,34.38214,-118.517422,0.0,24.0,1091.0,0.6492,20085.0,17908.0,21156.0,25077.0,29763.0,0.4742,21.0,0.9469,1126.0,45100.0,2,8.0,0,0.0,"Private School, Religious",non_ncaa
96,Loyola Marymount University,33.970633,-118.415655,0.0,28.0,1222.0,0.4489,26562.0,27553.0,29603.0,37301.0,46039.0,0.5648,11.0,0.5078,6162.0,53800.0,2,10.0,0,0.0,"Private School, Religious, For Sports Fans",D1
97,Menlo College,37.452906,-122.181444,0.0,22.0,1018.0,0.2895,21980.0,23321.0,27945.0,32748.0,35428.0,0.4452,21.0,0.3808,784.0,55800.0,2,0.0,0,0.0,"Business, Private School",non_ncaa
98,Mills College,37.782639,-122.18789,0.0,27.0,1183.0,0.4765,18797.0,18483.0,23645.0,29241.0,36511.0,1.0,11.0,0.7156,852.0,47300.0,2,6.0,0,0.0,"Private School, Sober School",D3
99,Mount Saint Mary's University,34.082112,-118.480471,0.0,19.0,915.0,0.0932,24901.0,26508.0,27884.0,31682.0,35179.0,0.9357,11.0,0.7653,2767.0,51400.0,2,3.0,0,0.0,"Private School, Religious",non_ncaa
100,Notre Dame de Namur University,37.517501,-122.284618,0.0,19.0,910.0,0.2516,22271.0,24118.0,25166.0,28166.0,30898.0,0.6682,21.0,0.8667,1097.0,53500.0,2,10.0,0,0.0,"Private School, Religious",D2
101,Occidental College,34.126224,-118.210783,0.0,30.0,1304.0,0.4887,15934.0,18824.0,18737.0,24790.0,42740.0,0.5653,11.0,0.4487,1997.0,51800.0,2,25.0,0,0.0,"Liberal Arts School, Private School",D3
102,Hope International University,33.87616,-117.88573000000001,0.0,19.0,910.0,0.4199,19142.0,20907.0,18821.0,23994.0,26354.0,0.5397,21.0,0.3425,843.0,42100.0,2,0.0,0,0.0,"Private School, Religious",non_ncaa
103,Pacific Union College,38.574090000000005,-122.44963899999999,0.0,21.0,984.0,0.2566,18454.0,17253.0,21921.0,23607.0,28814.0,0.5822,41.0,0.4522,1508.0,52200.0,2,10.0,229.0,0.0,"Liberal Arts School, Private School, Religious",non_ncaa
104,University of the Pacific,37.980624,-121.307296,0.0,26.0,1152.0,0.2726,22826.0,26172.0,28074.0,33095.0,37989.0,0.5183,11.0,0.6456,3720.0,55500.0,2,18.0,0,111.0,"The University of the Pacific is a private university with a picturesque campus in Stockton, California, that has made its way into more than 15 movies, including ""All the King's Men,"" ""Porgy & Bess"" and ""Flubber."" Freshmen and sophomores must live on campus, unless they're commuting from a parent's home within 50 miles of school. Upperclassmen may live in residence halls, Greek houses or university apartments if they'd like, but they aren't required to. Greek life draws about 20 percent of the student body, and, in total, there are about 150 student organizations to consider joining. The Pacific Tigers sports teams compete in the NCAA Division I West Coast Conference. The school does not have a football team. Since Stockton is situated in the California Delta waterway, students are close to water sports options, including jet skiing, windsurfing and sailing. For road trips within California, Sacramento is 45 minutes away and San Francisco, Napa and San Jose are all within a 90-minute drive. In addition to its degree options for undergraduate students, the University of the Pacific has the McGeorge School of Law, the Eberhardt School of Business, a graduate school of education and . Notable alumni of the University of the Pacific include billionaire Alex Spanos, owner of the San Diego Chargers football team, and baseball agent Scott Boras, who founded the sports agency Boras Corp. ",D1
105,Pepperdine University,34.041911999999996,-118.707677,0.0,28.0,1226.0,0.4738,26351.0,21463.0,29642.0,32815.0,38729.0,0.5905,21.0,0.381,3514.0,53100.0,2,8.0,0,50.0,"Squeezed in among the Santa Monica Mountain foothills, Pepperdine University is a Christian college known for its picturesque location in Malibu, Calif. The school upholds the New Testament-based traditions of the Churches of Christ. Students must attend 14 spiritual events a semester and take at least three religion courses during their time at Pepperdine. There is a Church of Christ on campus, as well as a handful of student-led ministries. Outside of church, the school's sports teams, the Pepperdine Waves, compete in the Division I West Coast Conference. Students can also play club sports, such as lacrosse and a triathlon group, and a variety of intramural sports, from dodgeball to beach volleyball. Freshmen and sophomores must live in university housing on the dry campus, and student spiritual life leaders live in each residence hall. About 25 percent of students are active in more than a dozen sororities and fraternities, though there is no official Greek housing on campus. ",D1
106,Pitzer College,34.103408,-117.70593899999999,0.0,33.0,1424.0,0.4752,17784.0,13072.0,11232.0,30142.0,44116.0,0.5698,21.0,0.1347,1067.0,49000.0,2,13.0,33.0,0.0,"Liberal Arts School, Private School",non_ncaa
107,Point Loma Nazarene University,32.713295,-117.251204,0.0,26.0,1148.0,0.5856,24593.0,24245.0,28390.0,31944.0,37025.0,0.6421,11.0,0.7134,2763.0,48300.0,2,9.0,0,0.0,"Private School, Religious",D2
108,Pomona College,34.098298,-117.71194399999999,0.0,32.0,1435.0,0.3976,6993.0,7627.0,10137.0,16201.0,35449.0,0.5024,21.0,0.10300000000000001,1640.0,57500.0,2,43.0,6.0,0.0,"Liberal Arts School, Private School",non_ncaa
109,University of Redlands,34.063571,-117.163847,0.0,25.0,1130.0,0.4751,22970.0,23742.0,25841.0,29006.0,34961.0,0.5605,13.0,0.6752,3452.0,50200.0,2,5.0,0,0.0,"Business, Private School",D3
110,San Diego State University,32.77525,-117.071228,0.0,25.0,1130.0,0.3414,7430.0,9406.0,13827.0,17950.0,20360.0,0.5451,11.0,0.3441,28649.0,51100.0,1,17.0,0,146.0,"Founded in 1897, San Diego State University is a public institution. The school has 28.3 percent of its classes with fewer than 20 students, and the student-faculty ratio at San Diego State University is 28:1. ",D1
111,University of San Diego,32.77142,-117.188721,0.0,28.0,1236.0,0.5332,24449.0,26590.0,27901.0,32434.0,42047.0,0.5446,11.0,0.5168,5551.0,54400.0,2,12.0,0,86.0,"The University of San Diego is a Roman Catholic institution open to students of all faiths. The school overlooks Mission Bay, and downtown San Diego is about a 15-minute trip away. On campus, there are more than 100 student organizations, including more than 10 fraternities and sororities. Most of the San Diego Torero sports teams are members of the NCAA Division I West Coast Conference; the football team competes in the NCAA Division I-AA Pioneer League. Athletic teams are cheered on by the school's mascot, a costumed bullfighter named Diego Torero. The University Ministry coordinates retreats and immersion trips and hosts daily Mass services, including a special Mass for Peace on Wednesday nights. After class, students can relax at nearby beaches, like La Jolla and Pacific Beach, or explore Balboa Park, the biggest urban cultural park in the country, which is home to 15 museums, the San Diego Zoo and the Old Globe Theatre. Opportunities to kayak, sail, wind surf and more are nearby. Students can join group excursions, led by the school's Outdoor Adventures program, or rent kayaks, surfboards and snorkel equipment on campus for trips on their own. Freshmen must live on campus, and for students around on the weekends, the school hosts a Friday Night Movies series. ",D1
112,San Francisco State University,37.721345,-122.477905,0.0,21.0,979.0,0.2062,8519.0,10176.0,14942.0,19289.0,21246.0,0.5631,11.0,0.6788,25867.0,52900.0,1,13.0,0,0.0,"Research University, State School",D2
113,University of San Francisco,37.775564,-122.45097700000001,0.0,26.0,1172.0,0.2703,26525.0,26208.0,32923.0,34630.0,43525.0,0.6202,11.0,0.6436,6682.0,56800.0,2,6.0,0,107.0,"The University of San Francisco is a Jesuit institution in California's Bay Area. The school tries to emphasize its Jesuit mission in every degree program offered. Students participate in service-learning courses, during which academic coursework is complemented by volunteer work around San Francisco. The university at large is committed to bettering the community, including through partnerships with local organizations and work through the school's research centers and institutes.  than 90 percent of freshmen live in on-campus housing. USF has about 100 clubs and organizations for students to consider joining, including a handful of fraternities and sororities. The USF Dons sports teams compete in the NCAA Division I West Coast Conference. The teams get their unique name, Don, or Spanish nobleman, from early Spanish settlers who came to California. Notable USF alumni include Starbucks co-founder Gordon Bowker and former NFL Commissioner Pete Rozelle. ",D1
114,San Jose State University,37.335201,-121.88121399999999,0.0,23.0,1055.0,0.1922,9173.0,10516.0,14938.0,19002.0,21483.0,0.4771,11.0,0.5522,26670.0,58500.0,1,27.0,0,0.0,"For Sports Fans, State School",D1
115,Santa Clara University,37.352706,-121.938189,0.0,30.0,1313.0,0.4869,22121.0,19436.0,27314.0,28966.0,43241.0,0.4918,12.0,0.488,5344.0,63800.0,2,30.0,0,0.0,"Private School, Religious, For Sports Fans",D1
116,Scripps College,34.103654999999996,-117.71133600000002,0.0,31.0,1362.0,0.4835,17778.0,12029.0,16228.0,29835.0,41245.0,1.0,21.0,0.27899999999999997,968.0,51000.0,2,24.0,26.0,0.0,"Liberal Arts School, Private School",non_ncaa
117,Simpson University,40.61331,-122.333048,0.0,21.0,1001.0,0.5954,16369.0,15830.0,16297.0,21926.0,25278.0,0.6392,13.0,0.5152,959.0,42300.0,2,4.0,0,0.0,"Private School, Religious",non_ncaa
118,Saint Mary's College of California,37.83997,-122.10679499999999,0.0,25.0,1124.0,0.4633,23457.0,23627.0,27830.0,31088.0,41974.0,0.5971,41.0,0.9754,2916.0,56000.0,2,5.0,0,0.0,"Private School, Religious, For Sports Fans",D1
119,Sonoma State University,38.341023,-122.67326100000001,0.0,22.0,996.0,0.4795,10090.0,11579.0,16119.0,20892.0,22443.0,0.6209,21.0,0.7655,8589.0,50100.0,1,11.0,0,0.0,State School,D2
120,Vanguard University of Southern California,33.662686,-117.90091100000001,0.0,21.0,975.0,0.4531,21182.0,16828.0,22553.0,24370.0,27590.0,0.6422,12.0,0.6826,1856.0,45200.0,2,3.0,0,0.0,"Private School, Religious",non_ncaa
121,University of Southern California,34.021058000000004,-118.28385800000001,0.0,32.0,1391.0,0.4013,15740.0,16114.0,20609.0,32790.0,48478.0,0.5075,11.0,0.1768,18519.0,59400.0,2,24.0,0,23.0,"The University of Southern California's central campus, referred to as the University Park campus, is located in Los Angeles's Downtown Arts and Education Corridor. USC has other campuses in L.A. in addition to sites around Southern California and in Sacramento, Calif., and Washington. Students can participate in the more than 700 on-campus organizations, ranging from religious groups to club sports. USC students are not required to live on campus, but the university offers housing in its 40 or so residence halls and apartment buildings. A thriving Greek life comprises more than 60 chapters representing more than 3,500 students. The USC Trojans compete in the Pac-12 Conference and are known for their legendary football program. ",D1
122,Thomas Aquinas College,34.429009,-119.08714099999999,0.0,30.0,1280.0,0.6976,16080.0,18883.0,16221.0,22087.0,27457.0,0.496,42.0,0.7513,377.0,46200.0,2,0.0,0,0.0,"Liberal Arts School, Private School, Religious, Sober School",non_ncaa
123,Westmont College,34.449265000000004,-119.66193200000001,0.0,26.0,1179.0,0.6366,19182.0,23861.0,25721.0,29680.0,37524.0,0.608,22.0,0.8122,1296.0,50700.0,2,18.0,0,0.0,"Liberal Arts School, Private School",non_ncaa
124,Whittier College,33.977625,-118.028402,0.0,23.0,1057.0,0.3135,10918.0,19807.0,30922.0,51221.0,52570.0,0.56,21.0,0.6262,1643.0,47000.0,2,8.0,128.0,0.0,"Liberal Arts School, Private School",D3
125,Woodbury University,34.209226,-118.34069199999999,0.0,19.0,944.0,0.3398,22634.0,25118.0,27574.0,35399.0,36042.0,0.494,11.0,0.5760000000000001,1245.0,46400.0,2,0.0,0,0.0,Private School,non_ncaa
126,Adams State University,37.477238,-105.88094299999999,0.0,20.0,954.0,0.4935,13719.0,14818.0,17455.0,19772.0,20143.0,0.478,33.0,0.6435,2067.0,41400.0,1,3.0,0,0.0,State School,D2
127,University of Colorado Denver/Anschutz Medical Campus,39.74603,-104.99918100000001,0.0,23.0,1055.0,0.5063,11245.0,12836.0,15727.0,18532.0,19060.0,0.5387,11.0,0.6742,10855.0,49900.0,1,14.0,0,0.0,"Research University, State School",non_ncaa
128,University of Colorado Colorado Springs,38.892734999999995,-104.800296,0.0,24.0,1088.0,0.6652,10698.0,12137.0,15088.0,17991.0,18203.0,0.5158,11.0,0.9206,9514.0,48500.0,1,19.0,0,0.0,State School,D2
129,University of Colorado Boulder,40.004415,-105.26706100000001,0.0,27.0,1212.0,0.7059,13714.0,16033.0,20982.0,26184.0,28201.0,0.4448,13.0,0.7962,26496.0,53400.0,1,36.0,0,0.0,"Party School, Research University, For Sports Fans, State School",D1
130,Colorado College,38.84657,-104.82422,0.0,31.0,1339.0,0.6398,7136.0,4971.0,11069.0,19225.0,47298.0,0.5353,11.0,0.1713,2096.0,49700.0,2,28.0,0,0.0,"Liberal Arts School, Private School",non_ncaa
131,Colorado School of Mines,39.75079,-105.227148,0.0,30.0,1339.0,0.7471,17143.0,19618.0,21129.0,28650.0,28669.0,0.2782,21.0,0.3767,4532.0,71900.0,1,94.0,0,82.0,"For students who want to work in the sciences, opportunities abound at the Colorado School of Mines. A public engineering and applied sciences school in Golden, Colorado, Mines has 14 academic departments, including Mechanical Engineering and Geophysics. The school also offers courses in the Liberal Arts & International Studies and Economics & Business departments. When students aren't studying, the school's location is ideal for outdoor recreation. Golden is 13 miles from the state capital of Denver and lies in the foothills of the Rocky Mountains, where students can bike, hike and climb. The campus also has a climbing wall for students to test their skills before attempting the Rockies. Cold-weather sports fans can partake in the annual Winter Carnival, a student-run affair packed with skiing and snowboarding at a local resort. The Mines sports teams, known as the Orediggers, compete in the NCAA Division II Rocky Mountain Athletic Conference, which is mostly made up of other teams from Colorado. The school mascot is Blaster the burro, and a giant ""M"" emblazoned onto nearby Mount Zion signifies the school spirit. There are more than 140 student clubs and organizations, including seven fraternities and three sororities. First-year students are required to live on campus. Even the student newspaper, The Oredigger, is decidedly science based; sections include weekly roundups of new discoveries and a Geek of the Week feature. ",D2
132,Colorado State University-Fort Collins,40.574759,-105.08083,0.0,25.0,1145.0,0.7365,9808.0,10250.0,16092.0,21245.0,22501.0,0.5103,12.0,0.8082,22727.0,49900.0,1,26.0,0,0.0,"Research University, For Sports Fans, State School",non_ncaa
133,University of Denver,39.695954,-104.964625,0.0,28.0,1249.0,0.6747,18722.0,19533.0,22345.0,26798.0,38747.0,0.5368,11.0,0.7275,5758.0,51700.0,2,12.0,0,86.0,"Whether a student is looking for outdoor recreation, a bustling urban lifestyle or a hometown team to support in every major professional sports league, he or she will likely find it at the University of Denver. Known as DU, the school is settled at the base of the Rocky Mountains in the state's capital city. Students who want to explore Denver's surrounding areas can join in on group trips through the school's Alpine Club, which organizes more than 20 outdoor excursions a year. There are more than 100 other student clubs and organizations to check out, too, including about 15 fraternities and sororities. Freshmen and sophomores must live on campus, with some exceptions. Student athletes compete on the Denver Pioneers sports teams, members of the NCAA Division I Summit League. The school's ski team has won more national championships than any other program in the country. On the professional level, Denver has a team in each of the four major sports leagues: the Denver Broncos in the NFL, the Colorado Avalanche in the NHL, the Denver Nuggets in the NBA and the Colorado Rockies in the MLB. For creative entertainment, students can check out musical, theatrical and innovative performances in the on-campus Newman Center. The university campus also hosts the Pen and Podium series, which brings in several famous authors and poets to speak each year. To explore downtown Denver, students can hop on the city's LightRail system, a network of monorail trains that stops on campus and goes to more than 40 other locations. The city is known for its revitalized urban areas, including Lower Downtown, or LoDo, a hub of shopping, dining and nightlife that is 8 miles from campus. ",D1
134,Fort Lewis College,37.275428000000005,-107.867003,0.0,22.0,1012.0,0.5187,12165.0,12633.0,16675.0,18881.0,20054.0,0.5074,32.0,0.8596,3559.0,45400.0,1,17.0,229.0,0.0,"Liberal Arts School, State School",D2
135,Colorado Mesa University,39.076353999999995,-108.54028100000001,0.0,20.0,952.0,0.7006,13720.0,14924.0,17385.0,18656.0,9042.0,0.5318,13.0,0.8306,8625.0,45300.0,1,9.0,0,0.0,State School,D2
136,Metropolitan State University of Denver,39.742248,-105.00239099999999,0.0,21.0,971.0,0.5835,7139.0,7546.0,9656.0,13252.0,13651.0,0.5329999999999999,11.0,0.6522,19649.0,46800.0,1,10.0,0,0.0,State School,D2
137,Naropa University,40.014815999999996,-105.267073,0.0,23.0,1145.0,0.6272,27489.0,29724.0,35051.0,38318.0,43594.0,0.6448,13.0,0.7956,397.0,34700.0,2,0.0,0,0.0,,non_ncaa
138,University of Northern Colorado,40.403178000000004,-104.70172099999999,0.0,22.0,1031.0,0.5554,16123.0,17306.0,19793.0,21055.0,21083.0,0.6325,13.0,0.8935,8915.0,45000.0,1,7.0,0,0.0,"Research University, For Sports Fans, State School",D1
139,Regis University,39.78976,-105.03138500000001,0.0,24.0,1092.0,0.5922,20275.0,18226.0,22639.0,24300.0,28264.0,0.6061,11.0,0.657,4458.0,53800.0,2,15.0,0,0.0,"Private School, Religious",D2
140,Colorado State University-Pueblo,38.309219,-104.57984599999999,0.0,21.0,970.0,0.4845,9395.0,9704.0,13588.0,15496.0,15584.0,0.5185,12.0,0.9589,3944.0,45500.0,1,14.0,0,0.0,State School,non_ncaa
141,Western State Colorado University,38.547421,-106.91971000000001,0.0,20.0,964.0,0.7455,12135.0,12488.0,15802.0,17696.0,18978.0,0.4,33.0,0.9761,1945.0,43900.0,1,17.0,0,0.0,State School,D2
142,University of Bridgeport,41.165587,-73.189352,0.0,21.0,926.0,0.2358,21918.0,23866.0,25140.0,26471.0,29658.0,0.6438,12.0,0.5177,2897.0,46800.0,2,27.0,0,0.0,Private School,D2
143,Central Connecticut State University,41.690258,-72.770094,0.0,22.0,1011.0,0.6478,12844.0,14170.0,16568.0,19464.0,21494.0,0.4695,21.0,0.5867,9693.0,49900.0,1,14.0,0,0.0,"For Sports Fans, State School",D1
144,Connecticut College,41.379833000000005,-72.107321,0.0,22.0,777.0,0.706,11530.0,17575.0,20502.0,26558.0,41838.0,0.6251,13.0,0.3997,1854.0,53200.0,2,27.0,0,0.0,"Liberal Arts School, Private School",D3
145,University of Connecticut,41.806261,-72.247969,0.0,29.0,1250.0,0.606,11079.0,13385.0,17672.0,21667.0,25464.0,0.4988,21.0,0.5317,18451.0,55400.0,1,24.0,0,60.0,"The University of Connecticut, located in Storrs, was originally known as the Storrs Agricultural School ÂŒ_-- a fitting name for an institution surrounded by farmland. Storrs is a sleepy town about a 30-minute drive from Hartford; 60 minutes from Providence, R.I.; and 90 minutes from Boston. Without many activities off campus, students can get involved in the more than 450 clubs and organizations on campus, including more than 30 fraternities and sororities. They can also catch a film in the on-campus movie theater and skate for free in the school's ice rink. Sports are a major focus for students; the UConn Huskies compete in the NCAA Division I American Athletic Conference, in which UConn's basketball teams are especially ferocious competitors. Freshmen do not have to live on campus, though more than 70 percent of all undergraduates choose to do so. Each year before final exams, students gather for Spring Weekend, a fun-filled, multi-day celebration that began as the school's Campus Community Carnival in the 1940s. ",D1
146,Eastern Connecticut State University,41.721672999999996,-72.218753,0.0,22.0,1050.0,0.6662,14526.0,15376.0,16861.0,19896.0,21888.0,0.5429,31.0,0.6356,4767.0,46300.0,1,13.0,0,0.0,State School,D3
147,Fairfield University,41.160732,-73.25778000000001,0.0,22.0,1050.0,0.7616,25428.0,28835.0,32111.0,33451.0,40544.0,0.6011,21.0,0.6497,3863.0,57100.0,2,21.0,0,0.0,"Private School, Religious, For Sports Fans",D1
148,University of Hartford,41.796485,-72.714965,0.0,23.0,1050.0,0.5567,26099.0,27637.0,28625.0,31231.0,32697.0,0.5068,12.0,0.6351,5028.0,51000.0,2,18.0,0,188.0,"The University of Hartford, also known as UHart or U of H, is located in central Connecticut, midway between Boston and New York City. Undergraduates at the University of Hartford can choose from more than 80 fields of study, and graduate students can pursue degrees in more than 30 programs, including those in the Barney School of Business and the College of Education, Nursing and Health Professions. Students at the University of Hartford embrace traditions such as the Martin Luther King Jr. celebration; Midnight Breakfast, during which students are served late-night food during finals week; and Spring Fling, an annual party with live music and food. For another tradition, freshmen sign a class banner that hangs in the library foyer for four years until it's presented again at their graduation ceremony. The University of Hartford also offers dozens of organizations for students to explore, including fraternities and sororities and recreational sports. Student athletes can also try out for one of the Hartford Hawks sports teams, which compete in the NCAA Division I America East Conference. ",D1
149,Mitchell College,41.328075,-72.095337,0.0,21.0,990.0,0.61,19133.0,21480.0,24463.0,29887.0,33263.0,0.4401,13.0,0.737,659.0,34700.0,2,0.0,0,0.0,,D3
150,University of New Haven,41.291314,-72.961472,0.0,24.0,1066.0,0.5931,24928.0,25951.0,29067.0,31360.0,33167.0,0.496,21.0,0.8212,4942.0,49200.0,2,23.0,0,0.0,Private School,D2
151,Post University,41.535334000000006,-73.080525,0.0,19.0,893.0,0.3959,36454.0,34891.0,38915.0,40612.0,40860.0,0.6024,22.0,0.8113,6170.0,34700.0,3,0.0,0,0.0,,D2
152,Quinnipiac University,41.419527,-72.895542,0.0,25.0,1095.0,0.7661,27834.0,27524.0,29756.0,34415.0,40571.0,0.609,21.0,0.7371,6931.0,52400.0,2,12.0,0,0.0,"Private School, For Sports Fans",D1
153,Sacred Heart University,41.221548,-73.24461,0.0,22.0,1030.0,0.7091,32070.0,32568.0,36744.0,39133.0,39671.0,0.6409999999999999,21.0,0.5897,5109.0,52400.0,2,16.0,0,0.0,"Private School, Religious, For Sports Fans",D1
154,University of Saint Joseph,41.783028,-72.730489,0.0,19.0,932.0,0.5354,19847.0,18456.0,21011.0,25258.0,29421.0,0.9790000000000001,13.0,0.9268,904.0,47300.0,2,8.0,0,0.0,"Private School, Religious",D3
155,Southern Connecticut State University,41.331852000000005,-72.948806,0.0,20.0,918.0,0.5598,11740.0,12698.0,14945.0,17585.0,19257.0,0.6105,12.0,0.6459999999999999,8106.0,46600.0,1,6.0,0,0.0,State School,D2
156,Trinity College,41.746746,-72.688684,0.0,31.0,1360.0,0.649,8072.0,10988.0,15391.0,24170.0,43844.0,0.4731,12.0,0.3341,2251.0,55600.0,2,18.0,44.0,0.0,"Liberal Arts School, Private School",D3
157,Wesleyan University,41.556779999999996,-72.656755,0.0,31.0,803.0,0.5349,6448.0,6886.0,13311.0,26241.0,43437.0,0.5388,13.0,0.222,2819.0,55900.0,2,22.0,21.0,0.0,"Liberal Arts School, Private School",D3
158,Western Connecticut State University,41.400365,-73.444264,0.0,23.0,961.0,0.6115,14024.0,15360.0,16748.0,19359.0,21088.0,0.5367,13.0,0.5729,5081.0,48200.0,1,7.0,0,0.0,State School,D3
159,Yale University,41.311158,-72.926688,0.0,33.0,1498.0,0.4651,6554.0,8014.0,7094.0,12559.0,39194.0,0.4884,12.0,0.0673,5528.0,66800.0,2,23.0,0,3.0,"Yale University, located in New Haven, Connecticut, is known for its excellent drama and music programs, which reach outside the classroom with student organizations such as the Yale Whiffenpoofs, a famous a cappella group, and the Yale Dramatic Association. The Yale Bulldogs compete in the Ivy League and are well known for their rivalry with Harvard. Students are assigned to live in one of 12 residential colleges during their time at Yale. Each college has a master and dean who live in the college and eat with students in the dining halls. Cultural houses provide a space for students to build a sense of cultural identity on campus. ",D1
160,Delaware State University,39.187173,-75.54053,1.0,19.0,892.0,0.1104,15963.0,16330.0,17300.0,16823.0,15942.0,0.6362,13.0,0.4443,3686.0,43400.0,1,12.0,0,0.0,"For Sports Fans, State School",D1
161,University of Delaware,39.679574,-75.75291700000001,0.0,27.0,1198.0,0.7436,10518.0,10598.0,13502.0,17959.0,21740.0,0.5748,21.0,0.6659,18353.0,54300.0,1,22.0,0,79.0,"For students interested in attending the University of Delaware, it pays to live in the state. The University of Delaware admits all Delaware residents whose academic records predict success, and about 65 percent who apply will be accepted. About half (45-55 percent) of all out-of-state applicants are admitted. For all who receive admission, there are about 280 student clubs and organizations on the school's lush campus in downtown Newark. Nearly 20 percent of students are involved in the school's large Greek system, which has about 25 fraternities and nearly 20 sororities. The Fightin' Blue Hens sports teams, named after a Delaware Revolutionary War battalion with the same nickname, compete in the NCAA Division I Colonial Athletic Association. The mascot is a costumed bird named YoUDee, and a group of live Blue Hen chickens reside on the school farm. Freshmen must live on campus, unless they commute from a parent's local home. When students want to leave campus, Wilmington is about 12 miles away. Philadelphia is a 45-mile drive and Baltimore is 55 miles away. The University of Delaware ran the nation's first study abroad program in 1923, and, these days, nearly 35 percent of undergraduates opt to spend time in another country. ",D1
162,Wesley College,39.16325,-75.527377,0.0,17.0,836.0,0.371,19932.0,20985.0,23790.0,24351.0,25664.0,0.5876,13.0,0.6255,1496.0,43400.0,2,5.0,0,0.0,"Private School, Religious",D3
163,American University,38.937802000000005,-77.090106,0.0,28.0,1252.0,0.5816,27341.0,25337.0,29622.0,32477.0,45529.0,0.6255,11.0,0.3502,7300.0,51800.0,2,3.0,0,74.0,"Students at American University benefit from the school's location in the political hub of the nation. Washington, D.C., is a playground for the politically and socially oriented with its countless museums, restaurants, clubs and year-round events. The university, located in a suburban pocket of northwest Washington, is close to a stop on the D.C.-area Metrorail transit system. Rides downtown take about 15 minutes. Students at American have been rated among the most politically active in the nation, and there are more than 200 student clubs and organizations on campus. The school also has a sizeable Greek system, with about 30 fraternities and sororities. The American University Eagles sports teams compete in the NCAA Division I Patriot League, and the school's mascot is, accordingly, an eagle. Catching a professional sports contest, such as a Redskins football game or a Nationals baseball game, is a quick trip from campus, too. The university is affiliated with the Methodist church, but its Kay Spiritual Life Center houses about 25 groups of different faiths. The confluence of opportunities on and off campus clearly works for most students: American University boasts a notably high freshmen retention rate of around 90 percent. ",D1
164,Catholic University of America,38.935796,-76.998961,0.0,23.0,1145.0,0.6412,33078.0,30630.0,31609.0,33587.0,37221.0,0.5338,11.0,0.7857,3462.0,52800.0,2,14.0,0,0.0,"Private School, Religious, Research University",D3
165,Gallaudet University,38.907371000000005,-76.993675,0.0,19.0,883.0,0.4863,12623.0,12326.0,15487.0,19176.0,22985.0,0.5207,11.0,0.6192,989.0,41900.0,2,5.0,0,0.0,Private School,D3
166,George Washington University,38.89865,-77.047871,0.0,29.0,1294.0,0.5627,21063.0,21493.0,27163.0,32460.0,42505.0,0.564,11.0,0.4646,10901.0,56200.0,2,14.0,0,56.0,"George Washington University's urban location in downtown Washington, D.C., is ideal for fans of politics and city life. The school is spread out across the D.C. Foggy Bottom neighborhood, near the State Department and about a mile away from museums on the National Mall and the Washington Monument. Freshmen and sophomores are required to live on campus, and, starting with the Class of 2018, juniors are required to live on campus as well. The school's sports teams are nicknamed the Colonials, and compete in the Division I Atlantic 10 Conference. A costumed student called George, named for George Washington, is the school mascot, though an 10-foot inflatable character known as Big George and an on-campus statue of a hippopotamus are unofficial mascots. There are more than 400 organizations on campus, and students can start their own clubs with an original idea and nine other members. About 25 percent of students are involved in the school's large Greek system. The TRAiL program takes students on outdoor excursions like hiking, kayaking and horseback riding. Student publications include the GW Hatchet, The Daily Colonial and The GW Patriot. ",D1
167,Georgetown University,38.908809000000005,-77.073463,0.0,32.0,1416.0,0.5785,6793.0,8680.0,17789.0,25949.0,46915.0,0.5494,11.0,0.1724,7168.0,61400.0,2,12.0,0,20.0,"Georgetown University is situated overlooking the Potomac River just a few minutes from downtown Washington. There are numerous traditional residence halls, and freshmen and sophomores are required to live on campus. Other students choose to live in the townhouses and apartments surrounding campus. Student organizations on campus include religious groups, media outlets and student government. The Georgetown Hoyas are part of the NCAA's Division I and are well known for their dominant men's basketball team, which maintains a fierce rivalry with Syracuse University and plays most home games at the Verizon Center, also home to the Washington Wizards. The popular chant ""hoya saxa,"" a mix of ancient Greek and Latin that means ""what rocks,"" gained prominence in 1920 and - contrary to popular belief - has nothing to do with Georgetown's mascot, Jack the Bulldog. ",D1
168,Howard University,38.920739000000005,-77.019478,1.0,24.0,1105.0,0.0169,23182.0,25781.0,26584.0,27820.0,21065.0,0.6759999999999999,11.0,0.4904,6796.0,52200.0,2,12.0,0,124.0,"At Howard University, a historically black college in the heart of the District of Columbia, all undergraduate students complete a universitywide core curriculum. Required courses include those in English composition and Afro-American studies. Students then have dozens of majors to choose from, including Afro-American studies, French and music therapy. Outside of class, Howard students may choose to get involved in one of the school's many student organizations, including fraternities and sororities and academic clubs. The university has its own stop on the city's public transportation system, the Metro, and students are also permitted to bring cars to school. Freshmen, however, are not eligible for campus parking. The school offers a range of male, female and coed housing, both on and off campus. Howard University has many graduate programs as well, including those in the School of Business, School of Law, College of Medicine and College of Engineering, Architecture and Computer Sciences. Notable alumni of Howard University include former U.S. Supreme Court Justice Thurgood Marshall, Pulitzer Prize-winning author Toni Morrison and Emmy Award-winning actress Phylicia Rashad. ",D1
169,Trinity Washington University,38.927398,-77.004261,0.0,21.0,966.0,0.0185,14776.0,15950.0,17549.0,21076.0,22413.0,0.9629,11.0,0.9405,1565.0,34700.0,2,0.0,0,0.0,,D3
170,Barry University,25.878865,-80.196136,0.0,19.0,926.0,0.2128,22047.0,21820.0,25308.0,28944.0,29351.0,0.6125,21.0,0.5506,3703.0,46000.0,2,12.0,0,0.0,"Private School, Religious, Research University",D2
171,Lynn University,26.382777,-80.123851,0.0,22.0,999.0,0.4415,29888.0,28926.0,32667.0,37105.0,37809.0,0.4803,13.0,0.7597,1957.0,42300.0,2,2.0,0,0.0,"Business, Private School",D2
172,Carlos Albizu University-Miami,25.795162,-80.355002,0.0,22.0,1314.0,0.0248,20967.0,18689.0,6061.0,11247.0,14451.0,0.797,21.0,0.72,202.0,34700.0,2,0.0,0,0.0,,non_ncaa
173,University of Central Florida,28.601059999999997,-81.19880500000001,0.0,26.0,1179.0,0.5325,11028.0,12570.0,15062.0,17636.0,18045.0,0.5475,21.0,0.4857,54091.0,46400.0,1,17.0,0,176.0,"The University of Central Florida is, fittingly, a school that's spread across the middle of the state. UCF is based in Orlando and has more than 10 regional campuses in locations including Daytona Beach, Ocala and South Lake. Freshmen at the Orlando campus are not required to live on campus and, because of limited space, those who hope to are encouraged to apply early for housing. There are more than 40 fraternities and sororities in the school's large Greek system, as well as more than 300 other student organizations to consider joining. The UCF Knights compete in the NCAA Division I American Athletic Conference. The University of Central Florida has many programs for graduate students, too, including those through the College of Business Administration, College of Engineering and Computer Science and College of Education. Notable alumni of the University of Central Florida include Cheryl Hines, an actress who starred in HBO's ""Curb Your Enthusiasm""; comedian Daniel Tosh, star of Comedy Central's ""Tosh.0""; and former soccer player Michelle Akers, a member of the National Soccer Hall of Fame. ",D1
174,Eckerd College,27.718996,-82.685992,0.0,26.0,1134.0,0.7587,25610.0,27420.0,27944.0,30867.0,34189.0,0.6219,12.0,0.7172,2002.0,45300.0,2,25.0,0,0.0,"Liberal Arts School, Private School, Religious",D2
175,Edward Waters College,30.345129999999997,-81.68481700000001,1.0,16.0,781.0,0.0441,11247.0,12477.0,13560.0,16235.0,20037.0,0.4892,11.0,0.5371,930.0,36900.0,2,13.0,0,0.0,"Private School, Religious",non_ncaa
176,Embry-Riddle Aeronautical University-Daytona Beach,29.189244,-81.0495,0.0,23.0,999.0,0.5363,26084.0,25944.0,30995.0,31096.0,34243.0,0.1885,13.0,0.6895,5247.0,58900.0,2,39.0,0,0.0,Private School,non_ncaa
177,Florida Agricultural and Mechanical University,30.428554,-84.28564399999999,1.0,21.0,966.0,0.0322,10048.0,11716.0,13953.0,14595.0,18423.0,0.6383,12.0,0.5141,7705.0,45900.0,1,9.0,0,0.0,"Research University, For Sports Fans, State School",non_ncaa
178,Florida Atlantic University,26.372536,-80.102293,0.0,23.0,1047.0,0.4314,10181.0,11799.0,15181.0,17426.0,17868.0,0.5657,13.0,0.6768,24228.0,46500.0,1,14.0,0,0.0,"Research University, For Sports Fans, State School",D1
179,Flagler College-St Augustine,29.89335,-81.315256,0.0,24.0,1071.0,0.7744,16462.0,17773.0,21270.0,21937.0,25908.0,0.608,23.0,0.5048,2691.0,40800.0,2,0.0,0,0.0,Private School,non_ncaa
180,Florida College,28.034910999999997,-82.38344599999999,0.0,22.0,1008.0,0.7755,16008.0,18245.0,20759.0,23807.0,25570.0,0.5401,21.0,0.8114,548.0,34700.0,2,0.0,0,0.0,,non_ncaa
181,Florida Institute of Technology,28.064503000000002,-80.624628,0.0,27.0,1194.0,0.419,25660.0,26447.0,26261.0,30308.0,31665.0,0.2886,13.0,0.5736,3320.0,55300.0,2,51.0,0,171.0,"The Florida Institute of Technology, known as Florida Tech, was originally started as training grounds for space industry professionals working at what is now the Kennedy Space Center. But the school also offers undergraduate degree programs in science, engineering, liberal arts, psychology, STEM education and . About half of the student body enrolls in the school's College of Engineering. The school's location on what's known as the Space Coast of the Atlantic Ocean puts students in an ideal spot for water sports such as surfing, boating, kayaking and fishing. For a more traditional collegiate athletic outlet, students can check out the Florida Tech Panthers sports teams, which compete in the NCAA Division II Sunshine State Conference. There are also more than 100 student organizations to consider joining, including about 10 fraternities and sororities. Florida Tech runs a variety of science-focused research centers and institutes, including the Wind and Hurricane Impact Research Laboratory, or WHIRL, and the Institute for Marine Research. There are programs for graduate students, too, through the Florida Tech engineering school, education school and . Notable alumni of Florida Tech include Ann Dunwoody, the first female four-star general in the U.S. Army, and David King, former director of the NASA Marshall Space Flight Center. ",D2
182,Florida International University,25.757111,-80.37759100000001,0.0,24.0,1090.0,0.0945,9785.0,11367.0,14174.0,15519.0,15161.0,0.5549,21.0,0.504,40208.0,46200.0,1,16.0,0,0.0,"Research University, For Sports Fans, State School",D1
183,Florida Memorial University,25.917854000000002,-80.27067199999999,1.0,32.0,1002.0,0.0043,15877.0,16076.0,17793.0,18627.0,20393.0,0.6176,21.0,0.2435,1399.0,36400.0,2,9.0,0,0.0,"Private School, Religious",non_ncaa
184,Florida Southern College,28.031507,-81.945791,0.0,27.0,1172.0,0.7396,21343.0,23456.0,23130.0,24543.0,26194.0,0.6455,13.0,0.4533,2519.0,43400.0,2,15.0,0,0.0,"Private School, Religious",D2
185,Florida State University,30.4421,-84.294801,0.0,27.0,1215.0,0.6438,12155.0,13215.0,15990.0,18400.0,19286.0,0.5494,12.0,0.5589999999999999,32229.0,47000.0,1,18.0,0,92.0,"Florida State University is a sprawling public school in Tallahassee, the state's capital. Freshmen are not required to live on campus, and typically, there is not room for every student, so it's important to apply early if you'd like to live in university housing. There are more than 600 student organizations to check out, as well as adventure trips for kayaking, backpacking, whitewater rafting and more coordinated through the school's Outdoor Pursuits program. The Florida State Seminoles sports teams compete in the NCAA Division I Atlantic Coast Conference and are traditionally dominant contenders in baseball and football. For students interested in studying abroad, Florida State has centers in Florence, Italy; London; Panama City, Panama; and Valencia, Spain, and offers students other study abroad programs as well. Florida State has a wide variety of graduate schools, including a College of Business, a College of Law and a College of Medicine. The university also has a joint College of Engineering with Florida A&M University. Among the notable graduates of Florida State University are fitness expert Richard Simmons and Spanx apparel line founder Sara Blakely. ",D1
186,University of Florida,29.649428000000004,-82.339958,0.0,29.0,1277.0,0.569,7024.0,7176.0,8578.0,11982.0,17099.0,0.5523,12.0,0.4754,32376.0,52200.0,1,27.0,0,50.0,"The University of Florida is about two miles away from downtown Gainesville, a college town bolstered by the school's nearly 50,000 students. The Florida Gators sports teams compete in the NCAA Division I Southeastern Conference, and are supported by mascots Albert and Alberta the Alligators. The Gator football team, which competes in Ben Hill Griffin Stadium -- commonly called the ""The Swamp"" -- is particularly notorious. The team became the namesake of popular sports drink Gatorade in 1966, after freshmen Gators experimented with the novel beverage. The annual Gator Growl, held each Homecoming weekend, has been called the largest student-run pep rally in the world. About 15 percent of students are involved in the school's 60-plus fraternities and sororities. Freshmen do not have to live on campus, though about 80 percent opt to do so. All students can partake in Gator Nights, held every Friday, which offer free late-night entertainment and a free midnight breakfast.",D1
187,Keiser University-Ft Lauderdale,26.185869,-80.16395899999999,0.0,21.0,959.0,0.4041,28372.0,28893.0,29966.0,30683.0,30922.0,0.6794,12.0,1.0,15023.0,42500.0,2,6.0,0,0.0,Private School,non_ncaa
188,University of Miami,25.720406,-80.27645,0.0,30.0,1319.0,0.4187,25202.0,24745.0,30380.0,31921.0,39742.0,0.5129,21.0,0.3779,10768.0,52700.0,2,22.0,0,44.0,"Located in Southern Florida, the University of Miami has an ideal location for students who love the outdoors. With popular spots like South Beach, the Florida Keys and Everglades National Park nearby, students have plenty of opportunities for water sports, hiking and sunbathing. Downtown Miami, also near to the school, is a thriving sports and cultural center. On campus, more than 2,400 students are involved in more than 30 fraternities and sororities. Students can also choose from more than 250 clubs and organizations to join. Freshmen are not required to live on campus, but many opt to live in the school's five residential colleges. The communities, modeled after housing at England's Oxford and Cambridge universities, combine living and learning with group meals, poetry readings, sports and more. For students who do not live in university housing, the Commuter Assistant Program pairs freshmen with an on-campus representative to help ease the transition into college. University of Miami Division I sports teams are known as the Hurricanes and compete in the Coastal Division of the Atlantic Coast Conference. The school's mascot is Sebastian the Ibis, a species of marsh bird that is known for weathering tropical storms. ",D1
189,University of North Florida,30.270916999999997,-81.507853,0.0,25.0,1140.0,0.6863,8859.0,10663.0,14451.0,17480.0,18835.0,0.5489999999999999,11.0,0.5660000000000001,13562.0,45600.0,1,12.0,0,0.0,"For Sports Fans, State School",D1
190,Nova Southeastern University,26.079337,-80.24248,0.0,26.0,1130.0,0.3143,21083.0,22580.0,23400.0,27718.0,26046.0,0.6970000000000001,21.0,0.5924,4565.0,48200.0,2,9.0,0,214.0,"Founded in 1964, Nova Southeastern University is a private institution. The school has 78.2 percent of its classes with fewer than 20 students, and the student-faculty ratio at Nova Southeastern University is 16:1. ",D2
191,Palm Beach Atlantic University,26.704628999999997,-80.049758,0.0,23.0,1065.0,0.6162,19725.0,18698.0,21145.0,23787.0,25337.0,0.6486,13.0,0.9289,2587.0,43100.0,2,4.0,0,0.0,"Private School, Religious",D2
192,Rollins College,28.591991999999998,-81.34871600000001,0.0,22.0,1030.0,0.6098,25213.0,25342.0,27386.0,31060.0,38783.0,0.5889,21.0,0.6038,2678.0,45700.0,2,11.0,0,0.0,Private School,D2
193,Saint Leo University,28.336776,-82.257287,0.0,22.0,1314.0,0.3698,17173.0,17067.0,19858.0,22270.0,25022.0,0.5972,23.0,0.7252,11575.0,43800.0,2,5.0,0,0.0,"Private School, Religious",D2
194,University of South Florida-Main Campus,28.056646999999998,-82.415876,0.0,26.0,1177.0,0.5137,7544.0,9007.0,12287.0,16094.0,17088.0,0.5467,11.0,0.4464,30282.0,46400.0,1,24.0,0,0.0,"Research University, For Sports Fans, State School",non_ncaa
195,St Thomas University,25.920915,-80.256265,0.0,20.0,924.0,0.1032,22957.0,25705.0,27326.0,28380.0,27008.0,0.5136,21.0,0.4892,882.0,44400.0,2,4.0,0,0.0,"Private School, Religious",non_ncaa
196,Stetson University,29.036295000000003,-81.301604,0.0,22.0,1050.0,0.6515,21008.0,20897.0,24927.0,26091.0,28096.0,0.5687,22.0,0.6347,3042.0,44100.0,2,7.0,0,0.0,"Private School, For Sports Fans",D1
197,Southeastern University,28.031864000000002,-81.91899699999999,0.0,20.0,955.0,0.6175,19897.0,20167.0,21500.0,22914.0,25359.0,0.5513,13.0,0.4648,3412.0,40100.0,2,2.0,0,0.0,"Private School, Religious",non_ncaa
198,The University of Tampa,27.947225,-82.465582,0.0,24.0,1092.0,0.5917,22976.0,24030.0,25564.0,27293.0,30549.0,0.5788,11.0,0.5074,7061.0,45600.0,2,8.0,0,0.0,Private School,non_ncaa
199,Warner University,27.825751,-81.599972,0.0,19.0,879.0,0.4006,14722.0,14291.0,14530.0,17626.0,18354.0,0.46299999999999997,41.0,0.512,1026.0,40000.0,2,3.0,0,0.0,"Private School, Religious",non_ncaa
200,Webber International University,27.838797999999997,-81.532325,0.0,18.0,890.0,0.3715,21407.0,21244.0,23788.0,26529.0,26868.0,0.2907,31.0,0.5264,681.0,41400.0,2,5.0,0,0.0,"Business, Private School",non_ncaa
201,The University of West Florida,30.542855,-87.218125,0.0,23.0,1053.0,0.6526,8909.0,9631.0,11979.0,14525.0,16124.0,0.5673,13.0,0.4154,9783.0,42300.0,1,12.0,0,0.0,"Research University, State School",non_ncaa
202,Agnes Scott College,33.769996,-84.29563,0.0,22.0,1030.0,0.3274,16851.0,15136.0,19163.0,22294.0,25473.0,1.0,21.0,0.6174,846.0,42900.0,2,21.0,61.0,0.0,"Liberal Arts School, Private School, Religious, Sober School",D3
203,Albany State University,31.571395000000003,-84.14305999999999,1.0,18.0,883.0,0.0427,11172.0,12197.0,15550.0,15828.0,16676.0,0.6558,13.0,0.6371,2949.0,38500.0,1,9.0,0,0.0,State School,D2
204,Armstrong State University,31.978109000000003,-81.160409,0.0,21.0,997.0,0.5702,17147.0,17698.0,20085.0,22015.0,21735.0,0.6661,12.0,0.7395,6184.0,44800.0,1,11.0,0,0.0,State School,non_ncaa
205,Point University,32.879715000000004,-85.18513399999999,0.0,19.0,910.0,0.4435,15591.0,13750.0,17073.0,18297.0,17990.0,0.4854,32.0,0.4907,1337.0,38600.0,2,3.0,0,0.0,"Private School, Religious",non_ncaa
206,Clark Atlanta University,33.748771999999995,-84.412818,1.0,18.0,850.0,0.0004,31558.0,32861.0,35495.0,37016.0,37061.0,0.7362,11.0,0.512,2741.0,44300.0,2,15.0,0,0.0,"Private School, Religious, Research University",D2
207,Berry College,34.289254,-85.189077,0.0,27.0,1179.0,0.8109,17218.0,15584.0,19692.0,22227.0,25819.0,0.6185,23.0,0.5537,2089.0,42000.0,2,22.0,0,0.0,Private School,D3
208,Brenau University,34.303117,-83.821513,0.0,21.0,990.0,0.5064,19374.0,20580.0,28433.0,36868.0,37739.0,0.8985,13.0,0.6562,1556.0,42600.0,2,2.0,0,0.0,Private School,non_ncaa
209,Clayton  State University,33.594079,-84.328174,0.0,18.0,1226.0,0.1755,10446.0,10702.0,12786.0,14661.0,14977.0,0.6909,21.0,0.3857,5920.0,34700.0,1,0.0,0,0.0,,non_ncaa
210,Columbus State University,32.501556,-84.94079599999999,0.0,20.0,961.0,0.5143,9650.0,10452.0,13091.0,13977.0,14042.0,0.5994,12.0,0.5569,6743.0,40900.0,1,8.0,0,0.0,State School,D2
211,Covenant College,34.963327,-85.37496,0.0,27.0,1189.0,0.8669,19754.0,20799.0,21368.0,25330.0,27088.0,0.574,21.0,0.9398,1007.0,41700.0,2,10.0,0,0.0,"Liberal Arts School, Private School, Religious",D3
212,Emmanuel College,34.282617,-83.146825,0.0,31.0,930.0,0.6723,15176.0,13185.0,14503.0,18079.0,14564.0,0.4456,32.0,0.3388,763.0,46700.0,2,15.0,229.0,0.0,"Liberal Arts School, Private School, Religious",D3
213,Emory University,33.798836,-84.32578199999999,0.0,31.0,1380.0,0.4058,11943.0,13877.0,19300.0,26577.0,46442.0,0.5812,21.0,0.2367,6770.0,56700.0,2,21.0,0,20.0,"Emory University is located in the suburb of Druid Hills near downtown Atlanta. First- and second-year students are required to live on campus, but a majority of students choose to remain on campus for all four years. The Student Programming Council organizes events and performances throughout the year and has brought entertainers and musicians such as Tracy Morgan, Sean Kingston and Guster to campus in past years. A popular organization among students is Volunteer Emory, which oversees community service activities. The Emory Eagles have nearly 20 NCAA Division III varsity teams and are well known for their successful swimming and diving team. In addition to varsity athletics, all students are required to take two courses in physical education. There is a thriving Greek community at Emory with a number of fraternity and sorority chapters. ",D3
214,Fort Valley State University,32.538163,-83.895548,1.0,18.0,865.0,0.0171,13732.0,14319.0,16948.0,18262.0,19960.0,0.5743,31.0,0.2051,2220.0,36100.0,1,16.0,0,0.0,State School,D2
215,Georgia Institute of Technology-Main Campus,33.773732,-84.396019,0.0,32.0,1403.0,0.5082,6541.0,9020.0,13089.0,14550.0,14419.0,0.3534,11.0,0.3217,14463.0,68100.0,1,78.0,0,0.0,"Engineering, Research University, For Sports Fans, State School",non_ncaa
216,Georgia Southwestern State University,32.058198,-84.21775500000001,0.0,21.0,967.0,0.6228,10621.0,10678.0,13870.0,14387.0,15892.0,0.6384,32.0,0.7164,2301.0,40300.0,1,5.0,0,0.0,State School,D2
217,Georgia College and State University,33.082786999999996,-83.231962,0.0,25.0,1143.0,0.8486,12986.0,14051.0,16715.0,18723.0,19224.0,0.6007,32.0,0.7566,5933.0,43300.0,1,10.0,0,0.0,State School,non_ncaa
218,Georgia Southern University,32.427756,-81.782201,0.0,23.0,1089.0,0.6236,13971.0,15204.0,17304.0,18948.0,19485.0,0.4992,32.0,0.6023,17173.0,46300.0,1,18.0,0,0.0,"Research University, For Sports Fans, State School",D1
219,Georgia State University,33.7527,-84.38667,0.0,23.0,1056.0,0.2636,12337.0,13190.0,15734.0,17590.0,18093.0,0.5888,11.0,0.5665,24421.0,47300.0,1,16.0,0,0.0,"Research University, For Sports Fans, State School",D1
220,University of Georgia,33.956428,-83.374049,0.0,28.0,1252.0,0.7115,7792.0,9812.0,13105.0,14458.0,14501.0,0.5693,12.0,0.5288,27335.0,50200.0,1,12.0,0,56.0,"At its founding, The University of Georgia made history as the first public, state-supported college in America. These days, the school is known for its vibrant student community. UGA's college town of Athens was rated among the best college towns in the country by U.S. News, and the competitive Bulldogs sports teams compete in the NCAA Division I Southeastern Conference. There are more than 600 student clubs and organizations, including about 60 Greek chapters that involve almost 25 percent of UGA students. Community service is a particularly big focus, with student-run philanthropies such as UGA Miracle, a yearlong fundraiser and 24-hour Dance Marathon for Children's Healthcare of Atlanta. First-year students must live on campus, but Atlanta is 60 miles away for those itching for a road trip. ",D1
221,LaGrange College,33.039713,-85.041394,0.0,22.0,1012.0,0.6818,18598.0,17566.0,19336.0,21825.0,23126.0,0.4983,32.0,0.5725,905.0,42100.0,2,9.0,229.0,0.0,"Liberal Arts School, Private School, Religious",D3
222,Life University,33.932103999999995,-84.514156,0.0,22.0,1030.0,0.4827,22025.0,22005.0,25102.0,28763.0,26967.0,0.5132,13.0,0.588,721.0,34700.0,2,0.0,0,0.0,,non_ncaa
223,Herzing University-Atlanta,33.846627000000005,-84.362635,0.0,22.0,1030.0,0.0478,22023.0,18790.0,23359.0,20691.0,22423.0,0.6036,11.0,0.8538,439.0,34700.0,3,0.0,0,0.0,,non_ncaa
224,Mercer University,32.831709000000004,-83.650114,0.0,27.0,1217.0,0.4763,17203.0,19055.0,20111.0,22025.0,22805.0,0.6056,12.0,0.6688,4556.0,46600.0,2,12.0,0,135.0,"Just an hour south of Atlanta, the main campus of Mercer University is located in the slightly quieter city of Macon, Georgia. Mercer offers programs in 12 different colleges and schools, with business being the most popular major. Tradition is important to the Mercer community. For the last 100 years, first-year students have climbed the tower of the tallest campus structure, the Godsey Administration Building, to sign their names on the surface. The Mercer Student Government Association also hosts an annual ceremony to light the school Christmas tree. Students can get involved through more than 100 student organizations, Greek life and athletics. The Mercer Bears sports teams, called the Mercer Baptists until 1924, mainly compete in the NCAA Division I Southern Conference. Graduate students at Mercer can choose from several programs, including those in the School of Medicine or the Eugene W. Stetson School of Business and Economics. Famous Mercer alumni include Nancy Grace of HLN's ""Nancy Grace,"" who graduated from the Walter F. George School of Law. ",D1
225,Morehouse College,33.74793,-84.41515600000001,1.0,21.0,978.0,0.0014,26680.0,29951.0,30747.0,30271.0,34534.0,0.0,11.0,0.7596,2163.0,52100.0,2,29.0,160.0,0.0,"Liberal Arts School, Private School",D2
226,Oglethorpe University,33.875939,-84.334756,0.0,25.0,1140.0,0.336,17243.0,17953.0,18883.0,21594.0,24598.0,0.5851,21.0,0.7847,1140.0,48800.0,2,12.0,0,0.0,"Liberal Arts School, Private School",D3
227,Paine College,33.469259,-81.991199,1.0,16.0,749.0,0.0218,17178.0,18811.0,22677.0,22622.0,23374.0,0.5862,12.0,0.3063,551.0,35900.0,2,12.0,0,0.0,"Liberal Arts School, Private School, Religious",D2
228,Piedmont College,34.566629999999996,-83.543216,0.0,22.0,995.0,0.7095,15720.0,15606.0,15854.0,16870.0,18481.0,0.6628,32.0,0.57,1284.0,41200.0,2,3.0,0,0.0,"Private School, Religious",D3
229,Reinhardt University,34.318874,-84.55465699999999,0.0,20.0,953.0,0.6834,19029.0,19485.0,21020.0,20228.0,22331.0,0.4637,41.0,0.9076,1238.0,40100.0,2,4.0,0,0.0,"Private School, Religious",non_ncaa
230,Savannah State University,32.024781,-81.063377,1.0,18.0,847.0,0.0389,9755.0,10626.0,13845.0,14982.0,15055.0,0.5796,12.0,0.8264,4519.0,39400.0,1,23.0,0,0.0,"For Sports Fans, State School",D1
231,Shorter University,34.258192,-85.196213,0.0,21.0,969.0,0.6186,17272.0,18535.0,18802.0,20793.0,21143.0,0.5688,13.0,0.6289,1345.0,43300.0,2,6.0,0,0.0,"Private School, Religious",D2
232,Spelman College,33.74519,-84.41011800000001,1.0,22.0,1015.0,0.0005,31122.0,31023.0,36642.0,38936.0,40263.0,1.0,11.0,0.4833,2142.0,47500.0,2,20.0,61.0,0.0,"Liberal Arts School, Private School",non_ncaa
233,Thomas University,30.813954,-83.98147800000001,0.0,19.0,902.0,0.4658,14645.0,13279.0,17713.0,18144.0,20256.0,0.5356,32.0,0.4321,745.0,38200.0,2,3.0,0,0.0,Private School,non_ncaa
234,Toccoa Falls College,34.59554,-83.353462,0.0,22.0,997.0,0.7633,18029.0,16278.0,19491.0,19810.0,22650.0,0.5291,41.0,0.4545,773.0,37400.0,2,3.0,0,0.0,"Private School, Religious",non_ncaa
235,Truett McConnell University,34.594437,-83.745972,0.0,20.0,938.0,0.8378,16244.0,14899.0,17402.0,19539.0,19790.0,0.5638,41.0,0.9113,752.0,34700.0,2,0.0,0,0.0,,non_ncaa
236,Valdosta State University,30.849235999999998,-83.289925,0.0,21.0,993.0,0.5063,11711.0,12800.0,15670.0,16481.0,16689.0,0.5912,13.0,0.5043,8692.0,39800.0,1,7.0,0,0.0,"Research University, State School",D2
237,University of West Georgia,33.574421,-85.099007,0.0,20.0,945.0,0.4997,13101.0,14183.0,16572.0,18164.0,18053.0,0.6308,31.0,0.5688,10309.0,43600.0,1,8.0,0,0.0,"Research University, State School",D2
238,Chaminade University of Honolulu,21.290274,-157.807642,0.0,21.0,966.0,0.1765,17436.0,19124.0,21194.0,22210.0,23492.0,0.6633,11.0,0.8203,1773.0,43200.0,2,4.0,0,0.0,"Private School, Religious",D2
239,University of Hawaii at Hilo,19.701854,-155.081329,0.0,19.0,926.0,0.2218,8609.0,9298.0,11904.0,14534.0,16635.0,0.6152,33.0,0.7125,3124.0,42900.0,1,13.0,0,0.0,State School,non_ncaa
240,University of Hawaii at Manoa,21.292648,-157.816607,0.0,23.0,1067.0,0.1745,9152.0,10678.0,13375.0,16599.0,19084.0,0.5453,11.0,0.8142,13320.0,48600.0,1,17.0,0,0.0,"Research University, For Sports Fans, State School",D1
241,Hawaii Pacific University,21.310270000000003,-157.859401,0.0,22.0,1068.0,0.2688,22372.0,20863.0,24250.0,24655.0,25680.0,0.5784,11.0,0.9129999999999999,3940.0,49300.0,2,14.0,0,0.0,Private School,non_ncaa
242,University of Hawaii-West Oahu,21.354897,-158.061825,0.0,22.0,1314.0,0.1097,6184.0,6007.0,8624.0,11887.0,12217.0,0.6544,21.0,0.7016,2517.0,40200.0,1,0.0,0,0.0,State School,non_ncaa
243,Boise State University,43.604403000000005,-116.205789,0.0,23.0,1046.0,0.7368,11829.0,11938.0,14187.0,16525.0,16755.0,0.528,12.0,0.7957,15959.0,46800.0,1,12.0,0,0.0,"Research University, For Sports Fans, State School",D1
244,University of Idaho,46.726894,-117.02429599999999,0.0,23.0,1061.0,0.7585,10891.0,12077.0,14474.0,16875.0,17838.0,0.4652,41.0,0.7205,7826.0,49300.0,1,22.0,0,171.0,"University of Idaho is located in the northwestern part of the state, in the city of Moscow. Undergraduates at Idaho can choose from many majors within eight colleges, and graduate students can earn degrees in more than 80 master's programs, including business, law, engineering and education. Outside the classroom, students can join more than 200 organizations, play club-level or intramural sports or explore the city. Moscow is home to movie theaters, cafÃ­Â©s, restaurants and the four-day Lionel Hampton Jazz Festival. Student athletes can try out for Idaho's silver-and-gold sports teams, which are called the Vandals, thanks to an old newspaper account of the 1917 basketball team vandalizing its opponents on the court. The Vandals mainly compete in the NCAA Division I Big Sky Conference. Notable Idaho alumni include Mark Felt, better known as Deep Throat, who was the source to reporters during the Watergate political scandal in the 1970s. ",D1
245,The College of Idaho,43.652653,-116.67683799999999,0.0,22.0,1068.0,0.6596,16825.0,16955.0,17128.0,19415.0,22830.0,0.5077,22.0,0.9037,1034.0,42400.0,2,18.0,0,0.0,"Liberal Arts School, Private School",non_ncaa
246,Lewis-Clark State College,46.410034,-117.026371,0.0,21.0,939.0,0.8178,13151.0,13610.0,15413.0,17904.0,17972.0,0.6253,13.0,0.9888,3013.0,43300.0,1,7.0,0,0.0,State School,non_ncaa
247,Northwest Nazarene University,43.563181,-116.564792,0.0,24.0,1056.0,0.7496,17966.0,17240.0,18778.0,20427.0,23822.0,0.6042,22.0,0.5626,1286.0,43100.0,2,7.0,0,0.0,"Private School, Religious",D2
248,Brigham Young University-Idaho,43.815384,-111.784728,0.0,23.0,1040.0,0.7889,6407.0,7081.0,8624.0,10541.0,11306.0,0.5755,32.0,0.9959,28457.0,50400.0,2,13.0,0,0.0,"Private School, Religious",non_ncaa
249,Augustana College,41.500326,-90.552402,0.0,21.0,978.0,0.7575,15499.0,16155.0,19098.0,23216.0,26896.0,0.5782,13.0,0.4934,2454.0,45000.0,2,29.0,0,0.0,"Liberal Arts School, Private School, Religious",D3
250,Aurora University,41.754465,-88.349469,0.0,21.0,990.0,0.5641,14664.0,14056.0,16455.0,20219.0,21671.0,0.6417,21.0,0.7724,3567.0,44900.0,2,3.0,0,0.0,Private School,D3
251,Blackburn College,39.288298,-89.872248,0.0,22.0,1005.0,0.7979,11402.0,11985.0,13138.0,17031.0,20319.0,0.544,32.0,0.5547,579.0,38800.0,2,20.0,0,0.0,"Private School, Religious",D3
252,Bradley University,40.697604999999996,-89.61462,0.0,26.0,1163.0,0.6413,16997.0,18801.0,22370.0,28281.0,32505.0,0.5092,12.0,0.6568,4436.0,52000.0,2,38.0,0,0.0,"Private School, For Sports Fans",D1
253,Chicago State University,41.718813,-87.610344,0.0,18.0,875.0,0.0273,11254.0,12346.0,13720.0,14592.0,9042.0,0.7088,11.0,0.2118,3437.0,43100.0,1,15.0,0,0.0,"For Sports Fans, State School",non_ncaa
254,University of Chicago,41.78917,-87.601196,0.0,34.0,1506.0,0.4451,6260.0,5263.0,10469.0,19095.0,40618.0,0.4754,11.0,0.0838,5869.0,58100.0,2,20.0,0,3.0,"The University of Chicago, situated in Chicago's Hyde Park community, offers a rich campus life in a big-city setting. The Chicago Maroons have more than 15 NCAA Division III teams, which compete in the University Athletic Association, and have strong basketball and wrestling programs. At Chicago, freshmen are required to live on campus, and more than 50 percent of students choose to remain on campus, while others live in off-campus apartments and houses. On-campus students are placed in ""houses"" within their dorm, which serve as tight-knit communities and provide academic and social support. Chicago offers more than 400 student organizations. ",D3
255,Columbia College Chicago,41.873589,-87.624554,0.0,22.0,1030.0,0.5516,25969.0,26520.0,30276.0,31363.0,33989.0,0.5772,11.0,0.8806,8492.0,42700.0,2,0.0,0,0.0,"Art, Private School",non_ncaa
256,Concordia University-Chicago,41.898573999999996,-87.810009,0.0,23.0,1047.0,0.5356,16635.0,16904.0,16184.0,19777.0,21172.0,0.5798,21.0,0.5031,1447.0,43700.0,2,1.0,0,0.0,"Private School, Religious",non_ncaa
257,DePaul University,41.923332,-87.654116,0.0,22.0,1314.0,0.5479999999999999,24636.0,24335.0,26591.0,29840.0,34204.0,0.5268,11.0,0.7198,15683.0,51500.0,2,16.0,0,124.0,"DePaul University has five campuses in and around Chicago, and its two main locations, the Loop and Lincoln Park campuses, are located downtown. Individual academic colleges, such as the College of Liberal Arts and Social Sciences and the Driehaus College of Business, are located exclusively on one campus. DePaul is also home to the School for New Learning, which caters to adult students. Universitywide, there are more than 300 student organizations to check out, and students are allowed to form their own clubs, too. More than 5 percent of students join fraternities and sororities. The school's sports teams, the Blue Demons, compete in the NCAA Division I Big East Conference. The university operates on quarters, not semesters, and each year, students gather for events such as FEST, an outdoor concert and festival in the spring, and Homecoming. University housing is offered to all DePaul students. Freshmen and sophomores are permitted to live in residence halls or residence hall apartments. Juniors and seniors have a selection of university-owned lofts, townhouses and apartments. There is also a multi-college community residence hall for students of any age, known as University Center, where students from DePaul University live alongside peers from Roosevelt University, Robert Morris University and Columbia College. Notable alumni of DePaul University include actor John C. Reilly, star of films including ""Walk Hard: The Dewey Cox Story"" and ""Step Brothers,"" and Samuel Magad, former concertmaster of the Chicago Symphony Orchestra. ",D1
258,Eastern Illinois University,39.483017,-88.175505,0.0,22.0,1010.0,0.6804,12721.0,12287.0,15247.0,20753.0,21386.0,0.5931,32.0,0.5021,7063.0,43800.0,1,6.0,0,0.0,"For Sports Fans, State School",D1
259,Elmhurst College,41.899215000000005,-87.946096,0.0,24.0,1090.0,0.6701,16982.0,17915.0,18658.0,21079.0,24355.0,0.597,21.0,0.5478,2752.0,46900.0,2,11.0,0,0.0,"Private School, Religious",D3
260,Eureka College,40.713042,-89.268952,0.0,22.0,1033.0,0.8394,11488.0,14532.0,14933.0,20110.0,15170.0,0.5431,31.0,0.6237,685.0,41600.0,2,11.0,0,0.0,"Private School, Religious",D3
261,Governors State University,41.448603000000006,-87.717012,0.0,19.0,911.0,0.3642,16925.0,17844.0,19555.0,21674.0,22243.0,0.6551,41.0,0.3887,3526.0,43500.0,1,17.0,0,0.0,State School,non_ncaa
262,Greenville College,38.894751,-89.409178,0.0,22.0,1022.0,0.6248,16473.0,15778.0,18791.0,21031.0,24851.0,0.5067,32.0,0.5629,1042.0,41100.0,2,10.0,0,0.0,"Private School, Religious",non_ncaa
263,University of Illinois at Chicago,41.872651,-87.651145,0.0,24.0,1092.0,0.3403,9576.0,10507.0,15049.0,22520.0,23738.0,0.5018,11.0,0.7665,17368.0,52800.0,1,29.0,0,0.0,"Research University, For Sports Fans, State School",D1
264,University of Illinois at Urbana-Champaign,40.108864000000004,-88.23030899999999,0.0,29.0,1305.0,0.4816,6906.0,11154.0,16974.0,23933.0,27207.0,0.4416,13.0,0.6556,32170.0,58600.0,1,37.0,0,0.0,"Party School, Research University, For Sports Fans, State School",non_ncaa
265,Illinois Wesleyan University,40.491521999999996,-88.990622,0.0,28.0,1249.0,0.7132,19107.0,19453.0,24763.0,27171.0,32945.0,0.5583,13.0,0.6191,1834.0,49000.0,2,22.0,71.0,0.0,"Liberal Arts School, Private School",D3
266,Illinois College,39.730827000000005,-90.246256,0.0,22.0,1030.0,0.6879,12703.0,13278.0,16437.0,20182.0,22737.0,0.517,32.0,0.6051,942.0,42800.0,2,33.0,138.0,0.0,"Liberal Arts School, Private School, Religious",D3
267,Illinois Institute of Technology,41.833801,-87.628346,0.0,28.0,1251.0,0.3257,14470.0,14128.0,17094.0,21482.0,26863.0,0.2976,11.0,0.5271,2923.0,60600.0,2,60.0,0,103.0,"The Illinois Institute of Technology, a private university in Chicago, provides a variety of options for students interested in the sciences. IIT offers a wide range of engineering degree programs, including aerospace engineering, biomedical engineering and mechanical engineering, as well as a range of degrees in architecture and the sciences. (For liberal arts-minded students, the school awards degrees for majors including communications, humanities and political science.) The school also runs an Institute of Design; the Chicago-Kent College of Law, which is particularly well known for its trial advocacy program; the Stuart School of Business; and other graduate student programs. For undergrads, there are more than 100 clubs and organizations to join, including TechNews, the student newspaper. Freshmen are required to live on campus, with some exceptions, and both undergraduate and graduate housing is available through the university. Each year, the campus comes together for events including Pumpkin Launch, a day in which students, faculty and alumni showcase homemade launching devices as they try to catapult pumpkins the furthest, and a spring formal in downtown Chicago. Students can also show their school spirit at IIT Scarlet Hawks athletic events, though the school does not have a football team. Notable alumni include Victor Tsao, founder of network hardware firm Linksys, and James Roche, former secretary of the Air Force. ",D3
268,Illinois State University,40.509724,-88.99234,0.0,24.0,1090.0,0.769,12307.0,13641.0,20228.0,24354.0,25414.0,0.5492,22.0,0.8772,18343.0,47900.0,1,9.0,0,152.0,"Illinois State University is located in the town of Normal, about 130 miles southwest of Chicago. Undergraduates at Illinois State can choose from dozens of degrees, and master's students can major in many fields as well, including business, education, and social sciences and humanities. First-year students at ISU can sign up for the Learning in Communities seminar, which allows them to take one of their first colleges courses with a small group of peers and learn about their fellow students and the university. ISU students can also join more than 300 student organizations, write for the Vidette student newspaper or play an intramural sport. More competitive athletes can try out for one of the many Illinois State Redbirds varsity sports teams, which compete in the NCAA Division I Missouri Valley Conference. ISU students can also spend their free time checking out the parks, golf course and museum in Normal, or attending one of ISU's many School of Theatre productions. A few of Illinois State's notable alumni performed in these productions and went on to become famous television actors, including Jane Lynch, who stars in ""Glee,"" and Laurie Metcalf, who appeared in ""Roseanne. ",D1
269,Judson University,42.05896,-88.28970799999999,0.0,24.0,1086.0,0.5818,14418.0,17803.0,16473.0,23920.0,23812.0,0.5901,12.0,0.706,1076.0,41900.0,2,2.0,0,0.0,"Private School, Religious",non_ncaa
270,Kendall College,41.898756,-87.64893599999999,0.0,21.0,990.0,0.4367,26471.0,25071.0,25361.0,31815.0,29956.0,0.7362,11.0,0.7443,1232.0,34700.0,3,0.0,0,0.0,,non_ncaa
271,Knox College,40.941829,-90.370316,0.0,22.0,1050.0,0.5221,15922.0,15918.0,19713.0,26232.0,27927.0,0.5919,32.0,0.638,1377.0,45600.0,2,24.0,71.0,0.0,"Liberal Arts School, Private School",D3
272,Lake Forest College,42.250456,-87.830777,0.0,23.0,961.0,0.5786,15322.0,17328.0,20819.0,24880.0,32093.0,0.5632,21.0,0.55,1559.0,51000.0,2,23.0,0,0.0,"Liberal Arts School, Private School",D3
273,Lewis University,41.605432,-88.079032,0.0,23.0,1051.0,0.639,14797.0,15056.0,17792.0,21928.0,24116.0,0.5672,21.0,0.6184,4529.0,47400.0,2,10.0,0,0.0,"Private School, Religious",D2
274,Lincoln College,40.157140999999996,-89.360552,0.0,17.0,824.0,0.4544,15042.0,15943.0,13816.0,20039.0,20256.0,0.5787,32.0,0.516,1118.0,34700.0,2,0.0,0,0.0,,non_ncaa
275,Loyola University Chicago,41.999161,-87.657399,0.0,27.0,1195.0,0.5814,25794.0,25986.0,29013.0,32590.0,35084.0,0.649,11.0,0.7126,10276.0,49600.0,2,15.0,0,99.0,"Loyola University Chicago, or Loyola Chicago, as it's known for short, is one of the largest Jesuit institutions in the country. The school has two locations in Chicago - Lake Shore and Water Tower - where on-campus living is separated between freshmen, sophomores and all upperclassmen. The university also has an international campus four miles from downtown Rome, where about 400 students study abroad each year. The Loyola Ramblers compete in the NCAA Division I Missouri Valley Conference. For graduate students, Loyola Chicago has a business school, a law school - particularly well known for health care law - and a medical school. There is an accelerated 3-3 year program for Loyola Chicago undergraduates who want to go to law school at Loyola, too. Notable Loyola alumni include Ian Brennan, co-creator of the TV show ""Glee""; Thomas Purcell, co-executive producer of Comedy Central's ""The Colbert Report""; and Michael Quinlan, former CEO of McDonald's Corp. ",D1
276,MacMurray College,39.730226,-90.22175,0.0,20.0,922.0,0.7434,16363.0,15500.0,17872.0,19698.0,23322.0,0.5097,32.0,0.6267,569.0,44200.0,2,8.0,0,0.0,"Private School, Religious",D3
277,McKendree University,38.609431,-89.814486,0.0,22.0,1006.0,0.6793,14123.0,15630.0,17408.0,22033.0,23587.0,0.5441,21.0,0.635,2292.0,44200.0,2,6.0,0,0.0,"Private School, Religious",D2
278,Midstate College,40.691390999999996,-89.592173,0.0,21.0,959.0,0.6925,22031.0,13927.0,15190.0,26561.0,22423.0,0.7544,12.0,1.0,452.0,34700.0,3,0.0,0,0.0,,non_ncaa
279,Millikin University,39.842603999999994,-88.974571,0.0,23.0,1069.0,0.7321,16962.0,17876.0,19709.0,22330.0,25169.0,0.5770000000000001,13.0,0.6,2012.0,44300.0,2,8.0,0,0.0,"Private School, Religious",D3
280,Monmouth College,40.914590000000004,-90.637909,0.0,23.0,1070.0,0.6257,9753.0,11295.0,13250.0,18764.0,22944.0,0.5243,32.0,0.624,1173.0,45600.0,2,18.0,147.0,0.0,"Liberal Arts School, Private School, Religious",D3
281,National Louis University,41.879826,-87.62480500000001,0.0,23.0,952.0,0.2537,12869.0,12293.0,17910.0,14575.0,14566.0,0.7793,11.0,0.8148,1210.0,46100.0,2,0.0,0,0.0,"Private School, Research University",non_ncaa
282,North Central College,41.775304,-88.143649,0.0,25.0,1125.0,0.706,16964.0,16593.0,19610.0,22554.0,27307.0,0.537,12.0,0.5716,2633.0,47200.0,2,8.0,0,0.0,"Private School, Religious",D3
283,North Park University,41.9751,-87.709142,0.0,22.0,1014.0,0.4942,15315.0,16702.0,17380.0,20313.0,24209.0,0.6349,11.0,0.4945,2139.0,44800.0,2,5.0,0,0.0,"Private School, Religious",D3
284,Northern Illinois University,41.933791,-88.766065,0.0,22.0,1029.0,0.5718,17030.0,17215.0,19448.0,21565.0,23792.0,0.4914,23.0,0.5035,14952.0,49400.0,1,19.0,0,214.0,"Northern Illinois University is located about 65 miles west of Chicago in the city of DeKalb. Graduate students can choose from about 80 master's degrees, including those offered by the colleges of business and law and the highly ranked Division of Public Administration. Undergraduates can choose from about 60 academic majors and participate in the Research Rookies program, which gives freshmen and sophomores a chance to conduct research in their field of study under faculty guidance. Many students at Northern Illinois University choose to study abroad, and the school offers programs for academic credit in about 75 countries. On campus, Northern Illinois students can join more than 200 clubs and about 40 Greek-letter organizations. The university is also home to numerous varsity athletic teams, which compete in the NCAA Division I Mid-American Conference. The NIU sports teams are known as the Huskies, but that hasn't always been the case. They were called the Teachers and the Profs in the school's early days as a teachers college, and they have been nicknamed the Cardinals and the Northerners as well. Notable NIU alumni include Dan Castellaneta, who voices Homer Simpson and several other characters on the animated television show ""The Simpsons. ",D1
285,Northwestern University,42.058377,-87.673653,0.0,33.0,1460.0,0.5037,13940.0,11545.0,16275.0,25071.0,42662.0,0.4988,13.0,0.1304,8576.0,59500.0,2,19.0,0,12.0,"What began as farmland and swampland in the 1850s became the Northwestern campus and the city of Evanston, Ill. Northwestern University is a Division I school in the Big Ten athletic conference. Northwestern's women's lacrosse team has won multiple NCAA national championships. The school has hundreds of campus organizations fulfill students' varied interests. Freshmen are guaranteed on-campus housing if requested in their applications. The school's 11 residential colleges offer thematic living quarters for social and academic programming. Northwestern's main campuses are located along Lake Michigan in Evanston and Chicago. In 2008, Northwestern opened a third branch in Doha, Qatar. ",D1
286,Northeastern Illinois University,41.980567,-87.72013000000001,0.0,18.0,870.0,0.3346,14623.0,15505.0,18837.0,22362.0,9042.0,0.5556,11.0,0.6704,7979.0,44100.0,1,15.0,0,0.0,State School,non_ncaa
287,Olivet Nazarene University,41.155489,-87.873654,0.0,24.0,1078.0,0.7934,16936.0,16955.0,17373.0,21028.0,23939.0,0.6076,23.0,0.7658,3389.0,46200.0,2,5.0,0,0.0,"Private School, Religious",non_ncaa
288,Quincy University,39.939235,-91.387928,0.0,22.0,1010.0,0.6986,13124.0,14604.0,18241.0,18716.0,20430.0,0.5379999999999999,33.0,0.6336,1065.0,41000.0,2,13.0,0,0.0,"Private School, Religious",D2
289,Robert Morris University Illinois,41.876278000000006,-87.62706800000001,0.0,32.0,1002.0,0.3633,19777.0,18507.0,19108.0,20516.0,19133.0,0.5032,11.0,0.2447,2681.0,42600.0,2,5.0,0,0.0,"Business, Private School",non_ncaa
290,Rockford University,42.270639,-89.019536,0.0,22.0,1007.0,0.6689,19836.0,18341.0,21462.0,22480.0,25304.0,0.5983,12.0,0.5382,1033.0,44200.0,2,10.0,0,0.0,Private School,D3
291,Roosevelt University,41.876055,-87.62495200000001,0.0,22.0,1038.0,0.4495,19455.0,20587.0,22045.0,23894.0,27732.0,0.639,11.0,0.7228,3197.0,45000.0,2,10.0,0,0.0,Private School,non_ncaa
292,Dominican University,41.902834000000006,-87.821872,0.0,22.0,1010.0,0.3784,15558.0,16743.0,19091.0,21519.0,22341.0,0.6613,21.0,0.6277,2241.0,46600.0,2,6.0,0,0.0,"Private School, Religious",D3
293,University of St Francis,41.533341,-88.096368,0.0,23.0,1069.0,0.6742,13365.0,15154.0,17679.0,20296.0,20617.0,0.6754,21.0,0.5053,1642.0,48000.0,2,4.0,0,0.0,"Private School, Religious",non_ncaa
294,Saint Xavier University,41.707763,-87.71350699999999,0.0,21.0,990.0,0.4488,13756.0,14989.0,16886.0,20116.0,21001.0,0.6679,11.0,0.7467,2966.0,46500.0,2,9.0,0,0.0,"Private School, Religious",non_ncaa
295,University of Illinois at Springfield,39.729862,-89.614917,0.0,23.0,1068.0,0.6255,10879.0,11869.0,11802.0,13707.0,17645.0,0.5051,12.0,0.6312,2857.0,43200.0,1,47.0,0,0.0,State School,D2
296,Southern Illinois University-Carbondale,37.713239,-89.218724,0.0,22.0,1032.0,0.6371,13354.0,13788.0,16286.0,19517.0,21864.0,0.4558,13.0,0.8064,12858.0,47300.0,1,16.0,0,0.0,"Research University, For Sports Fans, State School",non_ncaa
297,Southern Illinois University-Edwardsville,38.793949,-89.99777900000001,0.0,23.0,1070.0,0.7315,12214.0,13603.0,17957.0,19885.0,20039.0,0.5342,21.0,0.8822,11717.0,48100.0,1,22.0,0,0.0,"For Sports Fans, State School",non_ncaa
298,Trinity Christian College,41.669189,-87.784157,0.0,24.0,1097.0,0.6502,18965.0,18283.0,18066.0,23623.0,23051.0,0.6797,21.0,0.8769,1152.0,44400.0,2,5.0,0,0.0,"Private School, Religious",non_ncaa
299,Trinity International University-Illinois,42.197909,-87.882722,0.0,23.0,1042.0,0.6313,20541.0,15561.0,19444.0,21558.0,23242.0,0.4869,21.0,0.6631,838.0,42800.0,2,1.0,0,0.0,"Private School, Religious, Research University",non_ncaa
300,Western Illinois University,40.465621,-90.68523499999999,0.0,21.0,970.0,0.6214,13864.0,15159.0,18834.0,21779.0,22557.0,0.5031,33.0,0.6007,9141.0,44100.0,1,11.0,0,0.0,"For Sports Fans, State School",D1
